Counter,Date/time,Latitude,Longitude,Elevation,Temperature,Humidity,Temperature_Humid,Temperature_Press,Pressure,Compass,Orient_pitch,Orient_roll,Orient_yaw,Comp_x,Comp_y,Comp_z,gyro_pitch,gyro_roll,gyro_yaw,gyro_x,gyro_y,gyro_z,accel_pitch,accel_roll,accel_yaw,accel_x,accel_y,accel_z
1,2022-04-19 22:38:03.249665,-50.77586158199663,2.932671388475313,435.49491012351234,35.0092,29.3404,35.0092,33.8583,1006.0688,1.0115,0.0,0.0,1.0114854889515386,16.41443634033203,-0.28980645537376404,0.9263883233070374,0.0012194361861143906,0.0011357392714736257,1.0123599666087117,0.0037416666746139526,0.0020164623856544495,-0.0007015913724899292,359.4473523187813,1.3468704022007902,1.3844515971180815,0.020739998668432236,0.031964000314474106,0.011711999773979187
2,2022-04-19 22:38:13.488708,-50.634144765020494,3.903363937110058,435.40716549471546,35.1336,29.267,35.1336,33.8563,1006.0786,1.7537,358.90305443710133,2.6774762029970764,1.7633506850741323,29.963998794555664,-1.100897192955017,2.4627652168273926,358.90583624508423,2.6812067669443724,1.772798330800141,-0.0003969520330429077,0.001819811761379242,-0.0008926279842853546,358.3798050640092,3.932110023098722,2.0969671129368797,0.016835998743772507,0.03245199844241142,0.0056119998916983604
3,2022-04-19 22:38:23.726619,-50.48365537660882,4.867936656443341,435.31563881962796,35.1336,29.27,35.1336,33.8458,1006.0742,2.4245,357.94425307870415,5.419839203109274,2.4190470311263583,32.93880844116211,-1.0675972700119019,1.740125298500061,357.9462720399341,5.420981125361135,2.4129845979077373,0.004189375787973404,0.0006480440497398376,-0.000816667452454567,357.3918843680244,6.596431068310942,2.729558102965716,0.02000799961388111,0.03269600123167038,0.013175999745726585
4,2022-04-19 22:38:33.966549,-50.32447849021305,5.826163729978176,435.2203518384807,35.1692,28.8845,35.1692,33.8438,1006.0986,2.9877,356.90259821730183,7.7877108284359,2.9580289979197003,33.620853424072266,-0.5843708515167236,1.7940635681152344,356.90630167393584,7.793557470365431,2.929075612584605,0.004858221858739853,-8.017569780349731e-05,-0.000475224107503891,356.4259199554569,8.871427061964203,3.1747673354268953,0.02025200054049492,0.03171999752521515,0.01903199963271618
5,2022-04-19 22:38:44.210654,-50.15667698196991,6.7779650100788515,435.1213127775889,35.0269,29.0803,35.0269,33.825,1006.0737,3.3659,355.95428173288917,9.84380694315307,3.346684690939997,33.688968658447266,-1.0968818664550781,1.8766183853149414,355.9537600771913,9.841949985472473,3.33184418397744,0.001361999660730362,0.00012905895709991455,-0.0020326562225818634,355.48631943275535,10.994970440961604,3.5912840104019086,0.02122800052165985,0.032207999378442764,0.01439599972218275
6,2022-04-19 22:38:54.442742,-49.98063672254363,7.7215692060012175,435.01871732751744,34.9203,29.2884,34.9203,33.8063,1006.0916,3.8099,354.99508497057207,12.05233751221929,3.7769315402506174,33.96879577636719,-0.8410556316375732,1.9591482877731323,354.9963336145297,12.053340696253636,3.744238839788351,0.0010255351662635803,-0.001756332814693451,-0.0016453489661216736,354.5530594600378,13.1357566325187,3.9711599221309775,0.020983999595046043,0.03171999752521515,0.010735999792814255
7,2022-04-19 22:39:04.689539,-49.79600329117323,8.659211344794729,434.9123291492199,35.1158,29.2578,35.1158,33.7938,1006.0823,4.2094,354.0648102174086,14.250877222077078,4.184830864370602,33.896026611328125,-1.3751007318496704,2.0074820518493652,354.0655905665212,14.253840670403216,4.163574461899876,0.00024404749274253845,0.00391802191734314,-0.0009814668446779251,353.59288213868797,15.329338478812703,4.413823628465858,0.019763998687267303,0.0302559994161129,0.011711999773979187
8,2022-04-19 22:39:14.937160,-49.603125406833186,9.589364882555854,434.8023219344883,34.9736,29.1507,34.9736,33.7792,1006.0823,4.6101,353.129003864791,16.35545828839123,4.572572165815763,33.8836555480957,-1.12557852268219,1.6536118984222412,353.1282008906767,16.357570524392056,4.533185453080062,-0.0010125376284122467,-0.0003849118947982788,0.0005317460745573044,352.68732199814934,17.311473036328742,4.734792146811328,0.02000799961388111,0.03147599846124649,0.012931999750435352
9,2022-04-19 22:39:25.180999,-49.402212803822906,10.511398850476393,434.68878545076967,35.0092,29.0895,35.0092,33.7583,1006.0945,4.8922,352.25313370280077,18.27806262464873,4.851067152807509,34.0164794921875,-1.0614005327224731,2.2067666053771973,352.25350167924233,18.279339870023524,4.810623468297749,-0.0009840168058872223,0.0013924166560173035,-0.0024274252355098724,351.796550924711,19.217912022368118,5.015882605687679,0.02025200054049492,0.031964000314474106,0.010247999802231789
10,2022-04-19 22:39:35.428372,-49.19324203405376,11.425783798238127,434.57167765593664,34.9736,29.3251,34.9736,33.7417,1006.0825,5.1849,351.36999280443905,20.23269201037713,5.145876473518654,33.91548156738281,-0.9863860607147217,2.693662166595459,351.37046152617086,20.233228180226973,5.106238324444131,-0.0033050402998924255,0.0010280758142471313,-0.0005911439657211304,350.9953868105415,21.196498296610336,5.280706542168821,0.02147199958562851,0.03245199844241142,0.013419999741017818
11,2022-04-19 22:39:45.666948,-48.97659544454299,12.33124163244945,434.45118412350786,34.938,28.9335,34.938,33.7292,1006.0605,5.4236,350.57008459130316,22.082194539495276,5.384638969447967,34.179595947265625,-0.9669334888458252,2.74830961227417,350.57167602537976,22.084991501960396,5.342585067841375,0.002674877643585205,0.0012723952531814575,0.0012524016201496124,350.2180190754402,22.962880838624013,5.491791830920773,0.018055999651551247,0.031964000314474106,0.01268799975514412
12,2022-04-19 22:39:55.913965,-48.752032165560905,13.229144109684293,434.32714370635375,34.9914,29.2333,35.0269,33.7083,1006.0369,5.5875,349.87756402739274,23.83860842041532,5.546407731071487,34.09943771362305,-1.1680407524108887,2.645289897918701,349.8759452725594,23.840577222443578,5.508419072681523,-4.730746150016785e-05,0.0004194900393486023,0.0015290621668100357,349.54266789955597,24.64218188381461,5.6364462729183575,0.020495999604463577,0.030743999406695366,0.01878799870610237
13,2022-04-19 22:40:06.164869,-48.5197669156421,14.118925685995505,434.19965029584085,34.9914,29.4781,34.9914,33.6958,1006.0806,5.707,349.16982238691696,25.293384072114677,5.662708777163879,33.81924057006836,-0.9814333915710449,2.4968035221099854,349.1701476746762,25.29443762879415,5.616207995520787,-0.0036471672356128693,0.002834416925907135,0.00031598471105098724,348.81390635190945,26.116638725607363,5.7601794186013695,0.022204000502824783,0.030499998480081558,0.012199999764561653
14,2022-04-19 22:40:16.400503,-48.280372049223566,14.99881953065038,434.0689916886935,35.0269,29.062,35.0269,33.6854,1006.0317,5.8835,348.37621246196943,26.913609103626545,5.842774761800218,34.144805908203125,-0.9122454524040222,2.8662633895874023,348.3722108248894,26.911092178917393,5.800581695089288,0.0006269700825214386,0.0010699257254600525,-0.0003359522670507431,347.9410747703262,27.753906786645704,5.9780364130285655,0.020495999604463577,0.031964000314474106,0.014883999712765217
15,2022-04-19 22:40:26.637879,-48.033598429878516,15.870176035206363,433.93500655007847,34.9558,29.4444,34.9558,33.6708,1006.0627,6.0514,347.591056603667,28.468071366262237,6.008409410493966,34.164939880371094,-1.0549962520599365,2.849454164505005,347.59153642445625,28.46985404563561,5.9648276809474075,-0.0008736923336982727,0.000799909234046936,0.0012189429253339767,347.33990115637556,29.25556144171344,6.059966666556984,0.019519999623298645,0.03245199844241142,0.01634800061583519
16,2022-04-19 22:40:36.886584,-47.77933170683109,16.733697295094803,433.7976113575398,34.9203,29.2456,34.9203,33.6604,1006.0547,6.116,347.0369250638512,29.910822469927783,6.080729587860177,34.48604965209961,-1.4333418607711792,2.9001054763793945,347.0363180307887,29.910870281251974,6.051830203708207,-0.002039790153503418,-0.0015649199485778809,-0.0014751888811588287,346.7224375412544,30.646167466160527,6.158738885918185,0.019763998687267303,0.030499998480081558,0.014639999717473984
17,2022-04-19 22:40:47.133517,-47.51801648722947,17.588190704241768,433.65702583600034,34.9558,29.1446,34.9558,33.6542,1006.0354,6.2361,346.3914738948323,31.291934531428552,6.214994458356526,34.4837760925293,-1.7553719282150269,2.9895169734954834,346.38879987577224,31.293560116451015,6.196025742370931,0.00018475204706192017,0.0008911266922950745,0.002737870439887047,346.0328163926467,31.997520393447548,6.320043194678145,0.020739998668432236,0.03294000029563904,0.012443999759852886
18,2022-04-19 22:40:57.385034,-47.249620279121984,18.434112578603578,433.5132127284105,34.8314,29.27,34.8314,33.6396,1006.04,6.4058,345.71332917157747,32.711821576847484,6.380837854706782,34.6108512878418,-1.4666475057601929,3.1424801349639893,345.71297570928795,32.71010036917664,6.354194140528208,0.0011521801352500916,0.0011735856533050537,0.00024879537522792816,345.35393827782974,33.38705749328953,6.472139554663281,0.020983999595046043,0.03245199844241142,0.009271999821066856
19,2022-04-19 22:41:07.633564,-46.974471531167566,19.270782660759227,433.3663296215447,34.8847,29.1171,34.8847,33.6333,1006.0376,6.5681,345.0232546691636,34.16244447353147,6.533578386908015,34.504085540771484,-1.4159963130950928,2.5987353324890137,345.0241408862084,34.16480088879513,6.4941459972822395,0.0001322031021118164,-0.00038714706897735596,0.0008701775223016739,344.73886096004986,34.74456100592415,6.572571936879618,0.020739998668432236,0.030499998480081558,0.013175999745726585
20,2022-04-19 22:41:17.874148,-46.692847125211046,20.09776698361037,433.21650650918815,34.9914,29.2272,34.9914,33.6229,1006.0344,6.6322,344.4128116347356,35.3526254269737,6.594987763961954,34.63032913208008,-1.2687432765960693,2.8397955894470215,344.4142169461573,35.35160772878737,6.556059954561112,-0.0017022602260112762,0.0021001994609832764,0.0005561318248510361,344.1444859456443,36.10599529242611,6.657089124556179,0.020983999595046043,0.030988000333309174,0.014151999726891518
21,2022-04-19 22:41:28.114526,-46.404676715963916,20.915665340575963,433.06369002144356,34.9203,30.6683,34.9203,33.6125,1006.0452,6.7128,343.8355206309915,36.66645671005526,6.69287035118376,34.439388275146484,-1.4210505485534668,3.9073398113250732,343.83896816897504,36.66533997412596,6.68480859352903,-0.0030994676053524017,0.001091107726097107,0.000844169408082962,343.59106474550214,37.1982449935487,6.749418341095942,0.01756799966096878,0.03171999752521515,0.013663999736309052
22,2022-04-19 22:41:38.355783,-46.11005464517086,21.72456386751153,432.9079165680311,34.8847,29.4047,34.8847,33.6083,1006.0413,6.7962,343.384449815562,37.770707053549565,6.783538124207918,34.30549240112305,-1.522240400314331,3.44469952583313,343.3854453156335,37.76989084594375,6.763541464752236,0.0008703507483005524,4.0493905544281006e-05,-0.0003305915743112564,343.1099803713123,38.30580114860128,6.833309285802978,0.019276000559329987,0.030499998480081558,0.012931999750435352
23,2022-04-19 22:41:48.601414,-45.809011409217945,22.5247129778518,432.74919066632765,34.8314,29.3343,34.8314,33.6021,1006.0466,6.8733,342.8492003337066,38.85751650899824,6.841645104798155,34.25101852416992,-1.4863137006759644,2.7900383472442627,342.8462138334921,38.857536999565745,6.805525783806658,-0.0009755417704582214,-0.000829257071018219,-3.1949952244758606e-05,342.5319107260029,39.40242558588727,6.88704409155076,0.02025200054049492,0.030743999406695366,0.013175999745726585
24,2022-04-19 22:41:58.849991,-45.501712660352226,23.315998034823743,432.58758991037433,34.8491,29.1232,34.8491,33.5938,1006.0354,6.9348,342.26236414059747,39.92733245379192,6.917472157416344,34.13006591796875,-2.2208199501037598,2.7686922550201416,342.2591966403699,39.9280188878035,6.900454741099257,-0.002289719879627228,0.0012997612357139587,-0.0009729638695716858,341.9716149404611,40.39016314742491,6.965188712731699,0.020495999604463577,0.030988000333309174,0.014151999726891518
25,2022-04-19 22:42:09.093838,-45.188520405690014,24.097844041516062,432.4232961618897,34.8136,29.1752,34.8136,33.5917,1006.0396,7.0186,341.71545723337624,40.87097089895337,7.012081803365245,34.447410583496094,-1.9867782592773438,3.454423189163208,341.71586021453726,40.872504276422035,7.005581597709509,0.00019411370158195496,0.0006312578916549683,-0.001260712742805481,341.54188675864054,41.429598410790376,7.051111211829991,0.01903199963271618,0.0302559994161129,0.012931999750435352
26,2022-04-19 22:42:19.342666,-44.86926315000966,24.871025986371826,432.25621291422993,34.7247,29.3679,34.7247,33.5812,1006.0173,7.0859,341.3137396573419,41.919456162969105,7.068428729583735,34.55201721191406,-1.7226693630218506,3.4402754306793213,341.3128739308646,41.92005380452148,7.0552221319366915,0.0013646408915519714,0.0002422928810119629,-0.000635981559753418,341.03489376938154,42.44956080483213,7.125881719560943,0.019763998687267303,0.030743999406695366,0.012931999750435352
27,2022-04-19 22:42:29.590951,-44.544236670626006,25.635156845339313,432.086490529393,34.8136,29.3006,34.8136,33.5792,1006.0249,7.1734,340.8046429698186,42.925461065441944,7.169183411351531,34.35231399536133,-1.9869954586029053,3.541557550430298,340.8033981678423,42.92463802764696,7.164808675188138,0.0006231814622879028,-0.002464108169078827,-9.719282388687134e-06,340.575153736348,43.41273017592523,7.214804806138985,0.020983999595046043,0.03171999752521515,0.012199999764561653
28,2022-04-19 22:42:39.839965,-44.21353026781572,26.390367772786888,431.9141728533294,34.8136,29.3129,34.8136,33.5729,1006.0225,7.2505,340.33363995484365,43.90270745641444,7.233593802772044,34.462032318115234,-2.2522966861724854,3.038060188293457,340.3334008982227,43.89855470139907,7.223093240696795,0.0003519095480442047,-0.0012267082929611206,0.0011477358639240265,340.12962732697724,44.34048160107724,7.265441267324521,0.02000799961388111,0.031231999397277832,0.013175999745726585
29,2022-04-19 22:42:50.089142,-43.87728567385579,27.136670833543008,431.7393328987997,34.7958,29.1293,34.7958,33.5625,1006.0286,7.3056,339.9186735193668,44.77972423641159,7.304221373884561,34.58893585205078,-2.3725855350494385,3.4148809909820557,339.9167200852642,44.778699708036086,7.30401646820946,0.002511795610189438,-0.0011384189128875732,-0.0025371629744768143,339.7406087801573,45.1827361332936,7.334227248682073,0.019763998687267303,0.030499998480081558,0.010979999788105488
30,2022-04-19 22:43:00.328117,-43.53597231146341,27.873389383626435,431.5622152743277,34.8314,29.1599,34.8314,33.5687,1006.0452,7.3771,339.52173536820425,45.66384782824013,7.3677284727873396,34.600894927978516,-2.0533294677734375,3.583970785140991,339.52170292480565,45.66266620551372,7.361836580854558,0.0021428577601909637,0.002248309552669525,0.0010936018079519272,339.36215141334145,46.12290142726211,7.4000813713383975,0.020495999604463577,0.033427998423576355,0.012443999759852886
31,2022-04-19 22:43:10.574939,-43.189118142450866,28.60188027237327,431.3825778747478,34.7602,29.2088,34.7602,33.5542,1006.0081,7.4443,339.1797051077794,46.57699630894665,7.447881596471086,34.640228271484375,-2.626549243927002,3.433401346206665,339.17870448506596,46.58128225265083,7.452186323195486,-0.0016076825559139252,-0.001050800085067749,-0.000733671709895134,339.00415046308984,46.88878419927398,7.475806824892683,0.019519999623298645,0.03245199844241142,0.014883999712765217
32,2022-04-19 22:43:20.818484,-42.83720435498187,29.321445948017296,431.2006750584978,34.7958,29.2486,34.7958,33.5521,1006.0015,7.4945,338.85198238611844,47.2483356024672,7.498909085986605,34.64630126953125,-2.8075573444366455,3.626556396484375,338.8512378954989,47.24759111184767,7.513028794548314,0.000983063131570816,0.00016536563634872437,-0.00011559948325157166,338.630351285288,47.605626213045156,7.551159179363555,0.01903199963271618,0.030499998480081558,0.013175999745726585
33,2022-04-19 22:43:31.057887,-42.48039487553923,30.032094101855762,431.0165980245538,34.7958,29.3771,34.7958,33.5417,1006.0027,7.5978,338.46310556572377,47.97472280560347,7.611529513890006,35.0106315612793,-2.6452457904815674,3.8332831859588623,338.4629091977851,47.97570976793854,7.618998325747415,-0.0015388056635856628,0.0022505372762680054,0.0005229134112596512,338.281886986665,48.29979541386648,7.650293398750767,0.020739998668432236,0.030988000333309174,0.015371999703347683
34,2022-04-19 22:43:41.297514,-42.1186548237085,30.73422322298131,430.83033733392523,34.8314,29.3832,34.8314,33.5396,1006.019,7.6835,338.0983666338559,48.595774831359805,7.689332198725621,35.16297149658203,-2.6028974056243896,3.6122348308563232,338.09600168085575,48.59561432191431,7.692569708392207,0.0003563910722732544,0.0004247128963470459,0.0013534948229789734,337.86344910754246,48.9570645176968,7.735012503894667,0.01903199963271618,0.03245199844241142,0.016103999689221382
35,2022-04-19 22:43:51.545769,-41.751802488365115,31.42847731813624,430.64181056653405,34.7958,29.3649,34.7958,33.5333,1006.0156,7.748,337.75245682598245,49.244147613796194,7.743146405422506,34.86347198486328,-2.377586841583252,3.5748867988586426,337.75371358078974,49.2453531421847,7.739715942911866,0.0006612911820411682,0.0006905794143676758,0.0008190181106328964,337.53746979166715,49.58336895892487,7.7768713182230895,0.019763998687267303,0.031231999397277832,0.013175999745726585
36,2022-04-19 22:44:01.787764,-41.38045992845545,32.113982223493515,430.4513501330604,34.8491,29.4108,34.8491,33.5375,1006.0005,7.8022,337.38297774283063,49.92399390792799,7.800077739701854,35.20576477050781,-2.576237916946411,3.4732367992401123,337.3834148749375,49.918802964158786,7.797011838538165,-0.0010668933391571045,-0.00035150349140167236,-3.452785313129425e-05,337.18423119081433,50.29005106630566,7.832641520343536,0.02000799961388111,0.029523998498916626,0.01268799975514412
37,2022-04-19 22:44:12.028227,-41.00459419391087,32.79112271712184,430.2589532007132,34.7602,29.1782,34.7602,33.5167,1006.0098,7.8665,337.00358293255124,50.60762412685999,7.871460900491304,35.11945343017578,-2.5691351890563965,3.791844606399536,337.0039346872935,50.60931801377415,7.874582296941999,-0.00013848766684532166,0.00026329606771469116,-0.0003402344882488251,336.89331123594866,50.90176622346659,7.8901004867362685,0.02000799961388111,0.031964000314474106,0.015615999698638916
38,2022-04-19 22:44:22.260350,-40.62456331236998,33.45957809235236,430.06481879060647,34.8314,29.3251,34.8314,33.5271,1006.0249,7.9064,336.76886689681834,51.15673377008858,7.9039077141434495,35.62290954589844,-2.412837505340576,3.6582415103912354,336.76747183068034,51.1552482039441,7.8970971617673005,-0.0021956302225589752,-0.0005471557378768921,-0.000344960018992424,336.6255404997275,51.50949596524681,7.920664729498429,0.020495999604463577,0.0302559994161129,0.015859998762607574
39,2022-04-19 22:44:32.510311,-40.23949756138137,34.12115202010616,429.86852135333004,34.8314,29.371,34.8314,33.5146,1006.0132,7.9418,336.47419204545645,51.719626735062256,7.954193274360375,35.98698806762695,-3.0099101066589355,4.137330055236816,336.4730479887705,51.72154943331361,7.972440124728065,-0.0030320435762405396,-0.0025149956345558167,0.0032807588577270508,336.3298189218753,52.021855775646145,7.992712979958308,0.02122800052165985,0.0302559994161129,0.014883999712765217
40,2022-04-19 22:44:42.759311,-39.85020539902228,34.77470938746079,429.6704940373947,34.7602,29.524,34.7602,33.5125,1005.9739,8.0458,336.15993333419686,52.24951964106101,8.078056193637618,35.849185943603516,-3.112576961517334,4.581785202026367,336.16098859842367,52.24821507492954,8.110033431784325,0.0006883889436721802,-0.001024298369884491,-0.000655394047498703,336.0175546258534,52.50653965952859,8.125866664054062,0.02000799961388111,0.030988000333309174,0.013907999731600285
41,2022-04-19 22:44:52.997296,-39.457153081195834,35.41978000265569,429.4709950884506,34.778,29.2884,34.778,33.5167,1005.9927,8.1608,335.8877400504881,52.766069772516154,8.183609937070996,36.14462661743164,-2.8666296005249023,4.695817470550537,335.8898027676175,52.76331037609147,8.212569085378203,-0.0016365498304367065,-0.000736333429813385,0.002096300944685936,335.75364806915513,53.03517922581465,8.231235138606202,0.020983999595046043,0.030499998480081558,0.013419999741017818
42,2022-04-19 22:45:03.244727,-39.05969297174626,36.057712207168365,429.269719249175,34.7069,29.3863,34.7069,33.5,1005.9885,8.2883,335.5952423219242,53.2909322441912,8.327083183228991,35.71398162841797,-3.2330124378204346,4.927018642425537,335.5953379445726,53.28632869669061,8.36837338430901,0.0007477700710296631,0.0009631514549255371,-0.0008626524358987808,335.46674085042685,53.57755430252161,8.38718031018864,0.019763998687267303,0.031964000314474106,0.013419999741017818
43,2022-04-19 22:45:13.479089,-38.65876502911836,36.68728176458298,429.0671675060902,34.7247,29.3679,34.7247,33.5125,1005.9944,8.4378,335.36410872041097,53.84480594436587,8.470757919967502,35.798858642578125,-3.3216307163238525,4.95419454574585,335.364289720424,53.84947437866357,8.50788682829569,0.002542216330766678,-0.003275670111179352,0.0003825165331363678,335.24610354212064,54.16686302411031,8.522108135921304,0.02000799961388111,0.031231999397277832,0.010003999806940556
44,2022-04-19 22:45:23.722065,-38.253647467671016,37.30990303548066,428.8630018358854,34.7425,29.5056,34.7425,33.4896,1005.9851,8.5832,335.11447725907806,54.51842310597462,8.61775383618993,35.86149978637695,-3.0531387329101562,4.96453332901001,335.113420287304,54.51925297395878,8.64941603186117,-0.000559687614440918,0.0021475031971931458,7.713772356510162e-05,334.9822874854289,54.78323637028519,8.669584726706573,0.020739998668432236,0.03147599846124649,0.008051999844610691
45,2022-04-19 22:45:33.957951,-37.845040700677295,37.924764145887146,428.6576038598976,34.6713,29.3037,34.6713,33.4833,1005.9709,8.7271,334.83316908792193,55.18737866347484,8.749158138084514,36.294456481933594,-3.170222043991089,4.6222758293151855,334.83224018219477,55.184352889672525,8.773214064341298,-0.0023353025317192078,0.0017464831471443176,0.0009094160050153732,334.7038275031567,55.55172827456,8.799635797371847,0.019763998687267303,0.03245199844241142,0.01439599972218275
46,2022-04-19 22:45:44.209311,-37.43214105056057,38.53332158691416,428.4506004344922,34.7069,29.3832,34.7069,33.4771,1005.9829,8.8499,334.62785018637675,55.75892889322151,8.90288776705493,36.37885284423828,-3.5439608097076416,5.656734466552734,334.62843929019266,55.75762091199545,8.953297978224208,0.0006968379020690918,-0.0015440359711647034,0.0002685021609067917,334.5490400486385,55.92417507490621,8.957904087045735,0.02000799961388111,0.03001200035214424,0.015615999698638916
47,2022-04-19 22:45:54.458341,-37.01574626303019,39.13463397921363,428.24242432883284,34.6713,29.218,34.6713,33.4833,1005.9902,9.0186,334.4461620318125,56.05305732944977,9.069504255441867,36.594844818115234,-3.9735426902770996,5.5803375244140625,334.44670503185154,56.0514112538598,9.119201565616525,-0.00044413283467292786,-0.0009055361151695251,0.0002379249781370163,334.35691024238065,56.2896106860694,9.12863491063396,0.019276000559329987,0.031231999397277832,0.013175999745726585
48,2022-04-19 22:46:04.697015,-36.59628142433077,39.728363802469914,428.0333202322028,34.7958,29.3373,34.7958,33.4771,1005.9553,9.1883,334.27749734044824,56.502695512700875,9.238146748691358,36.65253829956055,-4.056744575500488,5.460651874542236,334.2753936421839,56.50161292771743,9.28331308212536,-0.00041842833161354065,-0.0014248192310333252,0.0010844655334949493,334.1965066648175,56.74071394489748,9.291402587423594,0.019763998687267303,0.030499998480081558,0.013907999731600285
49,2022-04-19 22:46:14.941087,-36.17318606250336,40.31556177327326,427.82304301317004,34.6891,29.3649,34.6891,33.4729,1005.9695,9.3443,334.1022859127645,56.91211412702437,9.389363721820857,36.86149215698242,-4.00596284866333,5.576058864593506,334.10262229958107,56.90978844761198,9.43621540443256,-0.001306246966123581,0.0007492899894714355,-0.00048329681158065796,333.9854828477681,57.10449665028153,9.448222023219795,0.018300000578165054,0.031231999397277832,0.014883999712765217
50,2022-04-19 22:46:25.178446,-35.74705054343753,40.89565452915348,427.61192203787573,34.7425,29.3863,34.7425,33.475,1005.959,9.5107,333.94829759037924,57.251618925003605,9.561797823833352,36.60215377807617,-3.98210072517395,5.612355709075928,333.94647222232356,57.250949566464946,9.6052113599716,-0.0019245073199272156,-0.00021003186702728271,0.0003995094448328018,333.8025772119843,57.48188850758683,9.621784813992635,0.01903199963271618,0.03147599846124649,0.013419999741017818
51,2022-04-19 22:46:35.425270,-35.31728825628755,41.46967585471186,427.39970441588684,34.7247,29.475,34.7247,33.4667,1005.9763,9.6651,333.74498505690275,57.66808629455055,9.705258263386654,36.42765808105469,-3.4535937309265137,5.903141975402832,333.74472038707245,57.66467803015471,9.74877425236245,-0.001497853547334671,-0.001622416079044342,-0.0014790892601013184,333.65789843743784,57.91393895372516,9.75587423400468,0.019276000559329987,0.03171999752521515,0.010979999788105488
52,2022-04-19 22:46:45.677632,-34.88412889696275,42.037530272887196,427.1865439518107,34.7425,29.3679,34.7425,33.4583,1005.949,9.8135,333.58768750786464,58.169818330601345,9.862435430340634,36.6424674987793,-3.751171588897705,6.046494007110596,333.5868508096913,58.17140293448879,9.905495504189332,0.0009609386324882507,0.0004994496703147888,0.00030447356402873993,333.5070639549018,58.34516977716308,9.913179467005596,0.01903199963271618,0.03147599846124649,0.014639999717473984
53,2022-04-19 22:46:55.916623,-34.448466676448795,42.59828813519907,426.97291990243156,34.778,29.371,34.778,33.4542,1005.9546,9.9594,333.4622920648924,58.47809891878987,9.999339742064368,36.83210372924805,-3.991755247116089,5.8598504066467285,333.45960950809587,58.47859069241011,10.040069013858801,-0.0007994994521141052,0.000520363450050354,0.0003034137189388275,333.34662281129823,58.66237059240765,10.051198807111337,0.019763998687267303,0.031964000314474106,0.01195599976927042
54,2022-04-19 22:47:06.159801,-34.009628761774295,43.15305538651882,426.75854255947166,34.7958,29.3679,34.7958,33.4646,1005.9387,10.1234,333.2783516554494,58.87570472094382,10.179932505040444,37.13423538208008,-4.285785675048828,6.171061038970947,333.27789574032226,58.87517196618856,10.226750036706298,0.0018207281827926636,-0.0009553954005241394,1.2194737792015076e-05,333.12857414468743,59.178568969120526,10.247658099529351,0.01903199963271618,0.03269600123167038,0.011711999773979187
55,2022-04-19 22:47:16.399908,-33.56800673539145,43.70155671619048,426.5436457177343,34.7425,29.423,34.7425,33.4604,1005.9604,10.314,333.0916620948654,59.39904064533937,10.371774589579532,36.94252395629883,-4.197112560272217,6.440458297729492,333.0914810948524,59.39630856967136,10.425249848138854,-0.000809110701084137,3.3035874366760254e-05,0.0002834014594554901,333.03173230754044,59.49969031294868,10.428522362524935,0.019763998687267303,0.0331839993596077,0.013663999736309052
56,2022-04-19 22:47:26.646168,-33.123278349985455,44.24440539400972,426.3281164391538,34.6891,29.3404,34.6891,33.4583,1005.9321,10.4816,332.9942994557942,59.66077349433426,10.530036902837896,36.79562759399414,-4.0436882972717285,6.46248197555542,332.9952949558657,59.6618116830881,10.579297080905675,0.0003922097384929657,-0.002314731478691101,-0.0003235228359699249,332.933597857093,59.788839541272,10.57956687337789,0.02025200054049492,0.03171999752521515,0.015371999703347683
57,2022-04-19 22:47:36.886288,-32.67604674867979,44.78107810503729,426.1122915370073,34.7069,31.0783,34.7069,33.45,1005.948,10.6429,332.8773580794671,59.87487943424665,10.702026188780696,36.99458694458008,-4.1486358642578125,6.862628936767578,332.8784935984166,59.8758015097846,10.761274664735971,0.0015720352530479431,-0.0013547241687774658,-0.0012465883046388626,332.81700482041356,60.07824831678378,10.764710249888488,0.018543999642133713,0.03245199844241142,0.012199999764561653
58,2022-04-19 22:47:47.130168,-32.22595121720419,45.31221953164618,425.8960421475336,34.6891,29.6464,34.6891,33.45,1005.9451,10.8348,332.79787175300106,60.26383821691137,10.897272268847388,37.435646057128906,-3.969069480895996,7.116973400115967,332.79901580968703,60.26241070737483,10.959863268627737,-0.0023620612919330597,-0.00016500800848007202,0.0017887186259031296,332.7237317571079,60.25920051846492,10.961137098907946,0.021715998649597168,0.03147599846124649,0.010979999788105488
59,2022-04-19 22:47:57.377442,-31.773080782050357,45.83792004388821,425.67945851784594,34.7425,29.5668,34.7425,33.4542,1005.9634,11.0364,332.60793956010866,60.463819325620165,11.106830156546195,36.868194580078125,-4.044538974761963,7.676904678344727,332.6074050978061,60.46511706156247,11.179316392886602,0.0001642480492591858,0.0010991841554641724,0.0005437396466732025,332.4882609854717,60.59520484449453,11.189021237923543,0.02025200054049492,0.0302559994161129,0.014883999712765217
60,2022-04-19 22:48:07.627333,-31.317534593558314,46.35825789689706,425.4626363193382,34.6713,29.3221,34.6713,33.4542,1005.9438,11.2655,332.4187262446264,60.65837726412798,11.340651437497826,36.974830627441406,-4.257085800170898,7.729684352874756,332.4181439709996,60.657045377239825,11.415224296629672,-0.0004190206527709961,-0.0006646066904067993,0.0008541196584701538,332.3406008333525,60.84476629638846,11.422010943343725,0.018543999642133713,0.03269600123167038,0.013419999741017818
61,2022-04-19 22:48:17.874021,-30.85964020754732,46.873056580496126,425.2457795522927,34.6713,29.3649,34.6713,33.4437,1005.9126,11.4936,332.3400817389755,60.98153400432879,11.57334915233099,37.325374603271484,-4.102396488189697,8.374839782714844,332.33789095579925,60.98327570256715,11.657502205547425,-0.002321165055036545,0.0015216991305351257,0.002051733434200287,332.2797797063408,61.08622031373758,11.663766342789973,0.02147199958562851,0.03269600123167038,0.011467999778687954
62,2022-04-19 22:48:28.123373,-30.3992344365594,47.382694137144746,425.02885968016494,34.6891,29.4138,34.6891,33.4479,1005.9041,11.7638,332.19863535145373,61.27433738385807,11.855575983930503,37.49320983886719,-4.087864398956299,8.762677192687988,332.19719418153886,61.27760904447051,11.940268622091368,0.0020088888704776764,0.0006714314222335815,0.0005190987139940262,332.1183908739899,61.424908904111,11.947300301841896,0.020495999604463577,0.03171999752521515,0.012443999759852886
63,2022-04-19 22:48:38.368570,-29.936574443283153,47.88707553270458,424.812047428754,34.6713,29.4169,34.6713,33.4396,1005.8921,12.0258,332.05554288834196,61.565918159525914,12.096638119175994,37.376129150390625,-3.564504861831665,8.328657150268555,332.05450982223005,61.5626191781568,12.161349892693634,0.0026201866567134857,-0.0004631727933883667,-0.0006867330521345139,331.96797303299326,61.77553666515361,12.169230223448535,0.02025200054049492,0.03269600123167038,0.015859998762607574
64,2022-04-19 22:48:48.612377,-29.471722727684615,48.38632316639968,424.59542154330376,34.7247,29.5117,34.7247,33.4458,1005.8816,12.2389,331.9460003144333,61.822248328887326,12.306426525759289,37.90849685668945,-4.006560325622559,8.438342094421387,331.9459183521633,61.82157214015949,12.375764898665967,0.001667909324169159,0.003399796783924103,-0.0005961861461400986,331.95654100387,61.87461538925381,12.379579559317419,0.01878799870610237,0.0302559994161129,0.014151999726891518
65,2022-04-19 22:48:58.861351,-29.00439479634793,48.88092101907905,424.37890084859913,34.6713,29.2976,34.6713,33.4521,1005.8879,12.4509,331.93027721896397,61.935410903056095,12.517581823950234,37.844417572021484,-3.6912882328033447,8.547679901123047,331.9299886434715,61.936059771027246,12.577674682041652,-0.00039173662662506104,-0.0005299597978591919,0.001559445634484291,331.87529761123994,62.0529379681045,12.58113929549814,0.02025200054049492,0.030988000333309174,0.016835998743772507
66,2022-04-19 22:49:09.107004,-28.535045187831816,49.37056403595698,424.16274768634696,34.7247,29.4077,34.7247,33.4396,1005.9136,12.6685,331.8404568162837,62.041654495595644,12.758135963876205,37.900272369384766,-3.9755454063415527,9.51947021484375,331.8419833635632,62.04272683529533,12.848375569416767,0.001984957605600357,8.965283632278442e-05,-0.001409364864230156,331.82920749472066,62.02566502274864,12.847260541034762,0.02025200054049492,0.031964000314474106,0.012931999750435352
67,2022-04-19 22:49:19.355676,-28.063434620734537,49.855676690706915,423.9469037082731,34.6358,29.3098,34.6358,33.4458,1005.8926,12.9322,331.78411629336756,62.1433628425263,13.01452162852462,38.30887222290039,-3.8665452003479004,9.54533863067627,331.7824907083451,62.14576706911415,13.096684535371642,0.0019735023379325867,-0.00259360671043396,-0.0007924120873212814,331.6980985985077,62.28594987163949,13.097988247729468,0.019276000559329987,0.03269600123167038,0.013419999741017818
68,2022-04-19 22:49:29.600680,-27.589931547481843,50.336051533687716,423.73158973960267,34.7425,29.5699,34.7425,33.425,1005.9097,13.1533,331.6919753339168,62.39378489825565,13.20879355286094,38.19309997558594,-3.3508310317993164,8.987378120422363,331.6927027490634,62.39287648309604,13.267876396728841,-0.0008559301495552063,-0.0008100196719169617,0.0010300911962985992,331.61322496033387,62.55696494771642,13.273828906590508,0.01903199963271618,0.030743999406695366,0.012199999764561653
69,2022-04-19 22:49:39.844544,-27.114483158881022,50.811914496121574,423.5168334120618,34.7602,29.4108,34.7602,33.4313,1005.8662,13.3461,331.5826649864399,62.67210144655533,13.415984780012337,38.29083251953125,-4.002378940582275,9.411384582519531,331.58416250541546,62.673433333443484,13.488401860687397,0.002787601202726364,0.0024224519729614258,-0.0010965541005134583,331.51343589655994,62.801533531327074,13.495754559328915,0.02000799961388111,0.031231999397277832,0.01512799970805645
70,2022-04-19 22:49:50.089850,-26.637013909838803,51.283505216892465,423.3026536209735,34.6891,29.267,34.6891,33.4271,1005.8804,13.5823,331.4838611774538,62.82843081627858,13.664460231828231,38.10456466674805,-3.950716018676758,9.91777229309082,331.486822064459,62.83143609951339,13.749072615266348,-0.0009513981640338898,0.000498548150062561,-0.0009787417948246002,331.37183582978184,62.965574184623264,13.756979413004284,0.02025200054049492,0.031964000314474106,0.010979999788105488
71,2022-04-19 22:50:00.336159,-26.157608550276176,51.75089891122416,423.0891421337715,34.7247,29.475,34.7247,33.4271,1005.8901,13.8527,331.3258549962893,63.12533913949903,13.940924091315544,37.992584228515625,-3.918862819671631,10.08899974822998,331.32548616607414,63.12792778119447,14.023384965165109,0.0017639286816120148,0.0005053430795669556,-0.000653514638543129,331.3371589593657,63.1643190290923,14.023425946300128,0.019276000559329987,0.03269600123167038,0.011711999773979187
72,2022-04-19 22:50:10.568505,-25.677012450502993,52.21353810601024,422.8766813041294,34.5647,29.1935,34.5647,33.425,1005.8823,14.107,331.32980967581875,63.30661919026034,14.186401090085802,37.98396301269531,-3.5907211303710938,10.086005210876465,331.3274498454605,63.30523266185883,14.263943373959311,0.0014673657715320587,-0.0015840008854866028,0.0020327847450971603,331.375438754569,63.21837997637295,14.265423817461912,0.018055999651551247,0.031964000314474106,0.011223999783396721
73,2022-04-19 22:50:20.817937,-25.19382685233998,52.672921512144825,422.66470704659713,34.6713,29.3649,34.6713,33.4271,1005.8826,14.3545,331.3867802836858,63.3674215342518,14.442129349026605,37.429176330566406,-3.695178747177124,10.386837005615234,331.38573014210095,63.36608281717447,14.530136336482219,-0.0006878674030303955,0.001750163733959198,0.0007770713418722153,331.26896635069227,63.52332060205734,14.5422121109348,0.019519999623298645,0.032207999378442764,0.014639999717473984
74,2022-04-19 22:50:31.065930,-24.70897059824273,53.128314636920834,422.45367982214935,34.7247,29.4444,34.7247,33.4188,1005.8701,14.6404,331.2658381240524,63.563939737051406,14.718313170757947,37.448585510253906,-3.2306652069091797,10.47308349609375,331.26368661446384,63.56116668024838,14.799180902983606,0.002959705889225006,0.0008162185549736023,-0.00045066699385643005,331.1889540996602,63.63328664769455,14.802519157940448,0.020495999604463577,0.031231999397277832,0.012443999759852886
75,2022-04-19 22:50:41.308322,-24.222686367357504,53.579644406852125,422.243757210864,34.7069,29.5515,34.7069,33.4208,1005.8792,14.9002,331.13782671862805,63.725022918436984,14.999414728691699,37.91278839111328,-3.264552593231201,11.27888298034668,331.137563756345,63.72623186192008,15.094345820418415,-0.0006679780781269073,0.0011578574776649475,0.000776633620262146,331.06516375114285,63.76215182676518,15.098028999928344,0.020983999595046043,0.0331839993596077,0.011223999783396721
76,2022-04-19 22:50:51.546293,-23.734981712751477,54.027057977174984,422.0349935078445,34.6002,29.3404,34.6002,33.4229,1005.8896,15.1918,331.02546669168674,63.91173979977762,15.281615947081823,37.64678192138672,-3.184880495071411,11.86928653717041,331.0242918991495,63.910093724187654,15.391110709666298,-0.001742035150527954,-0.0018389970064163208,-0.00017472170293331146,330.9962710480795,63.95058308558749,15.389211917077034,0.01903199963271618,0.030988000333309174,0.01439599972218275
77,2022-04-19 22:51:01.786476,-23.245569390273538,54.47096397509546,421.82731870578203,34.6891,29.5515,34.6891,33.4146,1005.8757,15.4816,330.9939965950859,63.97318418155106,15.568137260121981,37.943809509277344,-3.1185970306396484,11.287493705749512,330.9931735572909,63.97178399277121,15.650488850944825,-0.0030771158635616302,-0.0014201551675796509,0.001968124881386757,330.9297962319824,64.0594289802008,15.652642068080672,0.020495999604463577,0.030743999406695366,0.011711999773979187
78,2022-04-19 22:51:12.021487,-22.75485949625464,54.91113315337151,421.6209594432883,34.618,29.475,34.618,33.4229,1005.8989,15.7405,330.87278805807483,64.15974396854078,15.831408609227415,37.66852569580078,-2.8922834396362305,11.745610237121582,330.8732798316951,64.16228479891203,15.925970870738949,-0.001992281526327133,-0.0002202540636062622,0.00041000545024871826,330.90720879639713,64.4230204402881,15.921491974190713,0.02025200054049492,0.03171999752521515,0.01268799975514412
79,2022-04-19 22:51:22.264910,-22.262252760685783,55.348239123691265,421.4157177940682,34.7069,29.5454,34.7069,33.4188,1005.8792,16.0285,330.87589237905263,64.4979544456723,16.132788998806934,38.103111267089844,-3.1190385818481445,12.343660354614258,330.87581383187717,64.4958370870296,16.236821317602693,-0.0015906952321529388,-0.0011439472436904907,-0.0005277320742607117,330.82645205474546,64.57245814913881,16.236599336454667,0.021959999576210976,0.03245199844241142,0.01195599976927042
80,2022-04-19 22:51:32.515991,-21.767817310017158,55.78234637863527,421.21167973404187,34.6891,29.5821,34.6891,33.4229,1005.8896,16.3506,330.7616847859408,64.6748631753648,16.465535324602445,37.93739318847656,-2.903700828552246,13.033514022827148,330.7611759368477,64.67454898666298,16.58487921997008,-1.5035271644592285e-05,-0.00023406744003295898,0.0006978418678045273,330.7100348954372,64.69967725261947,16.58562883323149,0.020495999604463577,0.031964000314474106,0.014883999712765217
81,2022-04-19 22:51:42.758970,-21.272357135055223,56.21288282825136,421.00922977353633,34.618,29.1324,34.7602,33.4146,1005.8945,16.6812,330.692450573419,64.70627521535769,16.77403277129712,38.051387786865234,-2.696699380874634,12.41944408416748,330.6928262338234,64.71051676283227,16.860923022823435,-2.3953616619110107e-05,0.000389881432056427,-0.00019711069762706757,330.70406531010264,64.76071865323186,16.861032305850156,0.020983999595046043,0.030743999406695366,0.016103999689221382
82,2022-04-19 22:51:52.996656,-20.77580195746765,56.64004952842357,420.80838761070913,34.6536,29.4659,34.6536,33.4125,1005.8884,16.9642,330.6668305338423,64.71304393282519,17.071448236063446,38.0079345703125,-2.6182475090026855,13.220626831054688,330.66911864721425,64.71355619701293,17.178012847493985,-0.00021503865718841553,-0.0007235854864120483,-0.0005355067551136017,330.6388335884344,64.844688998888,17.178716356978498,0.020495999604463577,0.030743999406695366,0.013419999741017818
83,2022-04-19 22:52:03.239862,-20.277628097393503,57.06442557762942,420.60899363342054,34.5647,29.4934,34.5647,33.4167,1005.9019,17.2936,330.5975690005638,64.87584149169243,17.403584967475535,37.865753173828125,-2.433474063873291,13.479126930236816,330.5999595667733,64.88181107702702,17.512413786615934,-0.0018138773739337921,-0.00042398273944854736,-0.0010606590658426285,330.6035966425063,65.01362006762993,17.510837720464952,0.02025200054049492,0.030743999406695366,0.010003999806940556
84,2022-04-19 22:52:13.476521,-19.77850256932758,57.485569797453195,420.4113661929116,34.6891,29.4934,34.6891,33.4146,1005.8271,17.6184,330.5503211669802,65.15105713410892,17.71707699000078,38.01124954223633,-2.4203665256500244,13.183839797973633,330.55131495950445,65.15104347373058,17.80751723234821,0.0017803087830543518,-0.0001650303602218628,-0.0006024036556482315,330.4804380864872,65.18382155155747,17.8080209587995,0.02000799961388111,0.030743999406695366,0.013175999745726585
85,2022-04-19 22:52:23.714566,-19.278094276335136,57.903889499515216,420.2154234624154,34.6891,29.6035,34.6891,33.4229,1005.8521,17.9105,330.45309000905047,65.21596442179155,18.01124640736406,37.79320526123047,-1.9793370962142944,13.531656265258789,330.4509931409753,65.21532921419875,18.11195242403402,0.002288706600666046,-0.0005051866173744202,0.0002246648073196411,330.41722810081336,65.31418254205634,18.11289499013948,0.02000799961388111,0.03294000029563904,0.011467999778687954
86,2022-04-19 22:52:33.956193,-18.776251810932372,58.31963052172033,420.0211586187729,34.7602,29.3282,34.7602,33.4208,1005.8335,18.2099,330.41208155327377,65.42385488955924,18.30058005079497,37.572940826416016,-1.8255183696746826,13.430636405944824,330.4158688931685,65.42287134231876,18.39383774617503,-0.00106019526720047,0.0003925114870071411,-0.0010347682982683182,330.3953475898072,65.47048459102291,18.394250972619815,0.02122800052165985,0.030988000333309174,0.01659199967980385
87,2022-04-19 22:52:44.208132,-18.27276564364844,58.733079167160035,419.82854553497344,34.6891,29.3221,34.6891,33.4271,1005.8577,18.4894,330.36488153101436,65.39831681225256,18.58617075056071,37.8465576171875,-1.916864275932312,13.643335342407227,330.36333790826194,65.40083032186712,18.674638775785304,-0.0016710013151168823,-0.0005235448479652405,0.00018734298646450043,330.3475465109009,65.39524322712606,18.67393526630079,0.02147199958562851,0.030988000333309174,0.01512799970805645
88,2022-04-19 22:52:54.447428,-17.768774971884984,59.14342014119593,419.63806864166065,34.6891,29.3588,34.6891,33.425,1005.8533,18.7694,330.3023989604871,65.367239451529,18.868669082179732,38.31883239746094,-1.655641794204712,14.306821823120117,330.3017774132726,65.36529967780471,18.97122778766206,-0.0013654865324497223,0.0003921389579772949,0.0001875162124633789,330.23842399362616,65.33999382692981,18.971108259351585,0.02122800052165985,0.030499998480081558,0.010735999792814255
89,2022-04-19 22:53:04.696345,-17.263233253786353,59.551624093010126,419.4493803067605,34.7602,29.4781,34.7602,33.4292,1005.8699,19.0894,330.1679876678104,65.4434985136122,19.210508097307823,38.480384826660156,-1.4045395851135254,15.513553619384766,330.16718512058293,65.44437960801513,19.334896087377512,0.00016178563237190247,-0.0005240365862846375,0.0001877136528491974,330.18964619766854,65.41488002098984,19.334665568493023,0.020739998668432236,0.029523998498916626,0.013419999741017818
90,2022-04-19 22:53:14.938106,-16.757001168980697,59.95711001825654,419.2628507776396,34.7247,29.5179,34.7247,33.4229,1005.8804,19.4609,330.13386404271705,65.41765990798204,19.58484856760142,38.46049118041992,-0.8851651549339294,15.743409156799316,330.13381964648744,65.41479122853063,19.70905385011081,-0.0010593943297863007,-0.00021842122077941895,0.001409308984875679,330.1120518336026,65.4058231901504,19.70963953883214,0.01878799870610237,0.030988000333309174,0.015615999698638916
91,2022-04-19 22:53:25.179334,-16.249738388504483,60.36026709575141,419.078399753721,34.7247,29.3343,34.7247,33.4292,1005.8882,19.8456,330.1411620998452,65.36249247005584,19.979782058242606,38.484832763671875,-0.7895115613937378,16.33452033996582,330.1371015523836,65.35829190371628,20.113382265955345,-0.0010585673153400421,-0.0008293166756629944,-0.0007294211536645889,330.0975854929405,65.39177349102769,20.11225186964771,0.01878799870610237,0.030499998480081558,0.015371999703347683
92,2022-04-19 22:53:35.415343,-15.741790666377074,60.76093453560252,418.89619770917733,34.7069,29.5546,34.7069,33.4375,1005.8611,20.2392,330.1193362303524,65.34875695963494,20.363898236785783,38.54194259643555,-0.22977817058563232,16.417720794677734,330.1192098718528,65.35127046924951,20.48478746245313,0.0023008957505226135,0.0016143321990966797,0.00018666312098503113,330.05161831982633,65.54523418129953,20.49377257630628,0.020495999604463577,0.030988000333309174,0.013175999745726585
93,2022-04-19 22:53:45.657823,-15.232571802490119,61.15968433344318,418.7160806292811,34.7602,29.4291,34.7602,33.4333,1005.8821,20.6344,330.0240414310524,65.57341554181501,20.775422256920926,38.182254791259766,-0.41032126545906067,17.052282333374023,330.02197529882847,65.57303305122149,20.91764387091352,-0.0004475601017475128,0.0006982386112213135,-0.00011921487748622894,330.04475056461587,65.63847992384855,20.91775656903482,0.020739998668432236,0.029523998498916626,0.012931999750435352
94,2022-04-19 22:53:55.897643,-14.722585500392322,61.55622880536854,418.5382732513412,34.6713,29.3741,34.6713,33.425,1005.8416,21.0702,329.98865080586796,65.65244766070123,21.21859054348074,38.096004486083984,0.11470111459493637,17.46886444091797,329.9894533530954,65.65285064186226,21.359669808334647,-0.0019742846488952637,-0.0032719671726226807,0.0017131976783275604,329.9675796722785,65.68898234257162,21.356731119444248,0.020739998668432236,0.030988000333309174,0.011467999778687954
95,2022-04-19 22:54:06.137797,-14.211716152916074,61.95076581708253,418.3627785748164,34.6536,29.6586,34.6536,33.4437,1005.8857,21.5097,329.92592917871974,65.7682057067546,21.665804009576497,37.92760467529297,0.022129660472273827,17.942842483520508,329.92615115986774,65.76655280097546,21.81783719031181,-0.00044647231698036194,0.001309521496295929,0.001407397910952568,329.8389262290721,65.7733283486321,21.820772464107623,0.020495999604463577,0.03001200035214424,0.015371999703347683
96,2022-04-19 22:54:16.381892,-13.699804887088064,62.343521942890995,418.1895870751089,34.6002,29.3557,34.6002,33.4354,1005.8684,21.9656,329.8162909821627,65.71579083506393,22.112167117120585,37.938987731933594,0.6267315149307251,18.059663772583008,329.8178414351043,65.71415841985228,22.258973495593548,0.0010808520019054413,8.75517725944519e-05,-0.0007308684289455414,329.80395566052164,65.77637461300193,22.25904350503254,0.022447999566793442,0.032207999378442764,0.015859998762607574
97,2022-04-19 22:54:26.631133,-13.186839195855955,62.73460770104636,418.01874056150285,34.6713,29.4077,34.7069,33.4396,1005.8816,22.4023,329.7675405069617,65.73688245922092,22.54483228028421,38.17670822143555,0.9932932257652283,18.341114044189453,329.7689850919712,65.73839876121666,22.683929082731524,-0.0007515847682952881,-0.0002181604504585266,0.0001850668340921402,329.7341169762583,65.77563012238241,22.684388412953204,0.021715998649597168,0.030988000333309174,0.012443999759852886
98,2022-04-19 22:54:36.877985,-12.673220474132743,63.12381918636061,417.8504152922249,34.6713,29.3068,34.6713,33.4396,1005.8799,22.8416,329.6787173119003,65.8218705030634,22.996676614637238,37.679405212402344,0.8189723491668701,18.760528564453125,329.67834165149594,65.82309310692482,23.150381484171913,-0.0035000070929527283,8.736550807952881e-05,0.0007956456393003464,329.68993248251746,65.85165695803381,23.150840814393593,0.019763998687267303,0.031231999397277832,0.017324000597000122
99,2022-04-19 22:54:47.126997,-12.158758881210012,63.51140222121329,417.6845894736265,34.6536,29.4475,34.6536,33.4375,1005.8469,23.3218,329.71693222030655,65.75365057363331,23.486527536626795,37.24028778076172,1.4725894927978516,19.181629180908203,329.7136093332753,65.7569768757591,23.648401312408804,-0.00044614076614379883,0.0010037943720817566,-0.00042688846588134766,329.727618051263,65.80917318139633,23.649287529453616,0.02025200054049492,0.031231999397277832,0.013419999741017818
100,2022-04-19 22:54:57.355359,-11.644630749976713,63.89657705801044,417.521674086637,34.7247,29.5882,34.7247,33.4437,1005.8682,23.8081,329.7173693524134,65.827881069533,23.966187816374696,36.953609466552734,1.8124226331710815,19.26543426513672,329.716006729674,65.82827722050486,24.12419570508648,-0.0025843456387519836,0.0010036900639533997,-0.0016490612179040909,329.7085242574382,65.92562790674505,24.125119488171723,0.019763998687267303,0.030743999406695366,0.012199999764561653
101,2022-04-19 22:55:07.605070,-11.128757935651702,64.28099981097516,417.36104924390014,34.618,29.7443,34.618,33.4396,1005.8586,24.2812,329.6971622377539,65.9740880989063,24.43741110495034,36.961585998535156,2.172886371612549,19.584829330444336,329.6975993698608,65.96940258913567,24.594235663388417,-0.00044628605246543884,-0.000523887574672699,0.0010997503995895386,329.66102370685536,65.95924609783985,24.594023927524145,0.02000799961388111,0.0302559994161129,0.010003999806940556
102,2022-04-19 22:55:17.855743,-10.6121939493261,64.6639771672882,417.20308954292193,34.6713,29.4414,34.6713,33.4417,1005.8535,24.7465,329.62536328919873,66.07311218149314,24.897683892739156,36.77596664428711,2.4436588287353516,19.57829475402832,329.62203357197836,66.0742596532737,25.049549733839807,0.0001646876335144043,-0.003272704780101776,-0.0010387971997261047,329.6485791021876,66.08137671038885,25.04393873343664,0.018543999642133713,0.03147599846124649,0.012199999764561653
103,2022-04-19 22:55:28.101292,-10.0952727569054,65.04536011678456,417.0479315689154,34.7069,29.6433,34.7069,33.4375,1005.8416,25.2046,329.6799808968967,66.13643486528832,25.368254898249063,36.389469146728516,2.83571195602417,20.140356063842773,329.6777645005111,66.13404429907882,25.530439447638308,-0.002583567053079605,-0.002050362527370453,-0.0007330868393182755,329.6857592369346,66.1006583344158,25.527157541742117,0.019763998687267303,0.031231999397277832,0.010247999802231789
104,2022-04-19 22:55:38.353148,-9.577466224082855,65.42563456364074,416.8954522697351,34.6358,29.3588,34.6358,33.4458,1005.8508,25.6941,329.67170953781186,66.21492739923012,25.86146798085756,36.621437072753906,3.5499091148376465,20.796785354614258,329.67149780194757,66.21224996507547,26.03278961580899,-0.0004447624087333679,0.0016146302223205566,0.0007930714637041092,329.7301486363505,66.17217724521501,26.036961153844576,0.01878799870610237,0.0302559994161129,0.01195599976927042
105,2022-04-19 22:55:48.601731,-9.059269343014062,65.80453182715932,416.74583249841805,34.6536,29.4964,34.6536,33.4396,1005.8518,26.2137,329.73540788201143,66.21754336168223,26.386805150679923,36.358154296875,3.530467987060547,20.917144775390625,329.73632995754934,66.21877279573283,26.553110011685977,0.0007764771580696106,0.0006978437304496765,-0.0010388363152742386,329.7099859179206,66.26056672326413,26.55405770043332,0.018543999642133713,0.033427998423576355,0.013907999731600285
106,2022-04-19 22:55:58.851980,-8.540478464066299,66.1822959589644,416.59904536897324,34.5824,29.6555,34.5824,33.4458,1005.8594,26.7259,329.7733598281346,66.28391914003642,26.897491564732608,35.86906433105469,4.168066501617432,21.122915267944336,329.77648805477446,66.28882321586048,27.069057378946862,0.0001652538776397705,-0.0005244240164756775,0.0010998565703630447,329.7556218268601,66.28740936670229,27.06897370912953,0.020739998668432236,0.030743999406695366,0.013175999745726585
107,2022-04-19 22:56:09.097897,-8.02141570871559,66.55878690173373,416.4552121712833,34.6002,29.5362,34.6002,33.4458,1005.863,27.2583,329.72448299443397,66.29760683913312,27.441314641543606,34.94874954223633,4.280272006988525,21.362043380737305,329.7258831832138,66.29987446193756,27.62723068320406,-0.002277921885251999,-0.0008303448557853699,-0.00012193061411380768,329.71451091824576,66.39493020461663,27.62642301333471,0.019763998687267303,0.031231999397277832,0.013663999736309052
108,2022-04-19 22:56:19.342065,-7.5019892766856655,66.93416560298871,416.3143348384097,34.7247,29.5668,34.7247,33.4521,1005.8613,27.8048,329.7181923902084,66.39443843099639,27.97861830279183,34.684940338134766,4.55487585067749,21.38212776184082,329.7163892202675,66.39201371384104,28.160142532815964,-0.0007498003542423248,8.563697338104248e-05,0.00018339604139328003,329.71175152182104,66.33172363403733,28.160274013957487,0.020983999595046043,0.03147599846124649,0.012931999750435352
109,2022-04-19 22:56:29.585972,-6.982147382924345,67.30856221354381,416.17642717792194,34.7069,29.5179,34.7069,33.4437,1005.8308,28.3384,329.6843214821143,66.35817695669279,28.52023181340633,35.074684143066406,4.6056294441223145,22.030569076538086,329.6809917648939,66.35221420154737,28.707015289091377,0.00291544571518898,-0.0014412850141525269,0.00018295273184776306,329.6914521996078,66.30262019798391,28.70519504367757,0.01903199963271618,0.032207999378442764,0.013175999745726585
110,2022-04-19 22:56:39.836480,-6.4615739273571515,67.6822949519976,416.0414356971932,34.6891,29.472,34.6891,33.4479,1005.8159,28.9015,329.72412440950256,66.3318192566857,29.0951066377315,34.637420654296875,5.174469470977783,22.32408332824707,329.7251796737293,66.33411420024683,29.283841839971878,-0.0004448704421520233,0.0003914162516593933,-0.0016496479511260986,329.7280722588428,66.3495640881494,29.28334323616247,0.021959999576210976,0.0302559994161129,0.015615999698638916
111,2022-04-19 22:56:50.080018,-5.940985048152484,68.05494082239952,415.909572087147,34.7602,29.3068,34.7602,33.4479,1005.8396,29.468,329.67711563253994,66.27753291316245,29.65680090450584,34.45804214477539,6.062097072601318,22.55344009399414,329.676374557015,66.28200668706882,29.841810238553975,0.0029150769114494324,0.00039152055978775024,-0.001343628391623497,329.69791014346805,66.2843084608191,29.8415541064601,0.020983999595046043,0.030988000333309174,0.01634800061583519
112,2022-04-19 22:57:00.325441,-5.419969111868762,68.42688582230844,415.78075450174566,34.6713,29.5362,34.6713,33.4458,1005.8552,30.0256,329.68558848220533,66.2025852473999,30.184374961281378,34.35361862182617,6.318179607391357,21.726770401000977,329.6855372557866,66.20195686999627,30.33904459503632,-0.0007496476173400879,0.000696823000907898,0.0004886537790298462,329.7567044118435,66.0784055780999,30.344495085993987,0.02122800052165985,0.03147599846124649,0.01512799970805645
113,2022-04-19 22:57:10.566096,-4.8988857318932855,68.79796358282235,415.6550938765588,34.6891,29.3955,34.6891,33.4521,1005.8584,30.5146,329.73569816505113,66.04363308503537,30.685581072766084,33.98881149291992,6.6579461097717285,22.528703689575195,329.7351141838771,66.04368089635956,30.860304141924182,0.0010832399129867554,-0.0017461776733398438,0.0017101764678955078,329.7307599382812,66.01519217733143,30.85898591541437,0.02122800052165985,0.031964000314474106,0.01512799970805645
114,2022-04-19 22:57:20.812893,-4.377201757932918,69.1686430832382,415.53248440502847,34.7069,29.5485,34.7069,33.4521,1005.8406,31.0484,329.71663510707765,65.98842466597415,31.241565301394292,33.43451690673828,7.238829612731934,22.84296226501465,329.71618772968696,65.98849296786585,31.43235297548026,0.0010833218693733215,-0.0008298009634017944,-0.00195491686463356,329.70089493613534,65.96273632450573,31.429545767731383,0.018300000578165054,0.03245199844241142,0.01195599976927042
115,2022-04-19 22:57:31.064607,-3.8550208632416667,69.5389385199626,415.4129763233277,34.778,29.3618,34.778,33.4521,1005.8413,31.6272,329.74915363771606,66.03988331118103,31.827534060478857,32.921016693115234,7.836452960968018,23.167705535888672,329.75116171333207,66.04320278311765,32.02349901795569,0.003526393324136734,-0.002051323652267456,0.0014050938189029694,329.76746878997545,66.01127847893702,32.021630961217696,0.01878799870610237,0.032207999378442764,0.01878799870610237
116,2022-04-19 22:57:41.313614,-3.3327533444184834,69.90864754840972,415.29668380137997,34.7602,29.5332,34.7602,33.4562,1005.8274,32.2202,329.83721185159044,65.88376567732205,32.40868753619856,32.566612243652344,7.95630407333374,22.822998046875,329.83747822896805,65.88412767734806,32.590770134187345,-0.002887740731239319,-0.000523984432220459,0.004153290763497353,329.869474250135,65.93304549218368,32.591849304076206,0.019519999623298645,0.031964000314474106,0.013175999745726585
117,2022-04-19 22:57:51.555290,-2.8106632627992587,70.27767257915536,415.1836787291587,34.8136,29.5944,34.8136,33.4479,1005.8528,32.7616,329.88310389262375,65.9664314568467,32.93778131006443,32.312747955322266,8.46696949005127,22.871898651123047,329.87880087344666,65.9696689665133,33.114000190650756,-0.00013927742838859558,-0.001134239137172699,0.0017094947397708893,329.83821588939844,65.9694845514057,33.11346060570633,0.01903199963271618,0.030743999406695366,0.014883999712765217
118,2022-04-19 22:58:01.768762,-2.2898132255229107,70.64535300355398,415.0741908284502,34.7247,29.6831,34.7247,33.4521,1005.8643,33.3007,329.8589318531511,65.93325722804796,33.49157304796906,31.651376724243164,8.507829666137695,23.122108459472656,329.8578800040189,65.93475303947619,33.68795806207986,-0.0028882697224617004,-0.000829063355922699,-0.000733664259314537,329.82149900140485,65.89787684814729,33.68617879780107,0.020983999595046043,0.03171999752521515,0.011711999773979187
119,2022-04-19 22:58:12.013943,-1.767283428915109,71.01383744022453,414.96762249379293,34.6536,29.5087,34.6536,33.4479,1005.8794,33.902,329.78860822545664,65.9739719856904,34.09762256321346,31.719396591186523,8.842301368713379,23.457399368286133,329.7874163574465,65.9718546270477,34.29330065274516,-0.0010555349290370941,0.0010032504796981812,0.0014039762318134308,329.78448962138714,66.08353505016657,34.2959336906702,0.019763998687267303,0.030743999406695366,0.013419999741017818
120,2022-04-19 22:58:22.256307,-1.2447430369568235,71.3820347873807,414.86434116486026,34.7247,29.4169,34.7247,33.4479,1005.8525,34.5166,329.7787249417276,66.090180824229,34.73847530737367,30.834552764892578,9.724248886108398,23.748619079589844,329.77747160201494,66.09277629611361,34.95688768155775,-0.0007498152554035187,0.0013082697987556458,0.002014424651861191,329.7194115789752,66.18751101990168,34.96253283290677,0.018055999651551247,0.03001200035214424,0.01439599972218275
121,2022-04-19 22:58:32.503562,-0.7218764968005666,71.75025483983742,414.76429785939143,34.7958,29.5944,34.7958,33.4604,1005.8774,35.1931,329.7554681476037,66.15092169651793,35.422006488562694,30.41480827331543,10.239058494567871,23.998828887939453,329.7596892045108,66.14654354525995,35.654594920369135,0.0010828673839569092,0.0006969347596168518,-0.00042883679270744324,329.7535864304874,66.1461678848556,35.65525744871863,0.02025200054049492,0.03147599846124649,0.010491999797523022
122,2022-04-19 22:58:42.736373,-0.19969038177486412,72.1178763041458,414.66769105655135,34.7069,29.625,34.7069,33.45,1005.8918,35.9047,329.7305482024169,66.2539004586342,36.153041635429155,30.208192825317383,10.510767936706543,24.583690643310547,329.73063357978157,66.25269834534028,36.39536991699204,-0.00013819336891174316,0.003140196204185486,-0.0019559282809495926,329.72218805087283,66.24756204308443,36.39834446437558,0.019763998687267303,0.031231999397277832,0.011711999773979187
