Counter,Date/time,Latitude,Longitude,Elevation,Humidity,Temperature,Temperature_Humid,Temperature_Press,Pressure,Compass,Orient_pitch,Orient_roll,Orient_yaw,Comp_x,Comp_y,Comp_z,gyro_pitch,gyro_roll,gyro_yaw,gyro_x,gyro_y,gyro_z,accel_pitch,accel_roll,accel_yaw,accel_x,accel_y,accel_z
1,2022-04-20 01:35:03.252616,-46.005716863448924,-92.8617361629091,434.8049232483395,34.3513,29.833,1005.5852,11.6477,0.0,0.0,11.647655634085206,14.954991340637207,-3.0827839374542236,2.5629355907440186,359.99590771450363,359.9987944838053,11.64782809636175,-0.0007570497691631317,-0.002206355333328247,0.0004922188818454742,359.4685620305058,1.288503660978681,11.98207791754831,0.02025200054049492,0.03171999752521515,0.013419999741017818
2,2022-04-20 01:35:08.482414,-46.15792808689406,-92.45186174924261,434.8594271764999,34.4224,29.8667,1005.6409,12.3018,358.93407801008516,2.568003425083993,12.287080868708875,26.965408325195312,-5.304129600524902,5.383893966674805,358.93214976230513,2.5679682069210847,12.275950221682692,-0.0006051920354366302,-0.0008694082498550415,-0.001984942704439163,358.3768213385589,3.8918336782236262,12.641419130018088,0.02025200054049492,0.030988000333309174,0.015859998762607574
3,2022-04-20 01:35:13.725294,-46.30894333062746,-92.03838848031852,434.9132700431332,34.3513,30.1634,1005.6367,12.9166,357.85439446965324,5.0369964279594805,12.903119535614419,29.50071144104004,-5.827155113220215,6.202300071716309,357.85114842225016,5.036598996327151,12.888989581768955,-0.0021408088505268097,8.28281044960022e-05,0.001046719029545784,357.30942029252367,6.293433631445422,13.229687101532008,0.02122800052165985,0.030988000333309174,0.011467999778687954
4,2022-04-20 01:35:18.960234,-46.45806617276984,-91.62316048623005,434.966202496232,34.4402,29.9401,1005.5725,13.5484,356.76845010035163,7.514158337082304,13.539912586086695,30.05980682373047,-6.197532653808594,6.087923526763916,356.76636667921133,7.514236030484113,13.53328986391272,0.0006983838975429535,-6.195157766342163e-05,-0.0004994980990886688,356.2893101956411,8.595604386485226,13.779542942927423,0.020739998668432236,0.030988000333309174,0.015371999703347683
5,2022-04-20 01:35:24.200603,-46.605656925523334,-91.20513186983639,435.0183521431899,34.2802,30.0319,1005.5627,14.0118,355.7850339141245,9.656783557073426,13.985353618092832,30.27975082397461,-5.680464267730713,6.314830303192139,355.78332039041646,9.655430325844117,13.958914809589357,-0.0009836331009864807,0.0006573647260665894,0.0019132047891616821,355.30965573609933,10.80466514898577,14.228171965728661,0.02025200054049492,0.03001200035214424,0.008051999844610691
6,2022-04-20 01:35:29.432613,-46.75131139380621,-90.78540604296325,435.0695759889862,34.4224,29.8881,1005.5444,14.5127,354.79934028669595,12.033650968423782,14.491339154449253,30.415306091308594,-6.122762680053711,6.3231892585754395,354.7984233337999,12.037106190370162,14.476198332606627,-0.0021171122789382935,-0.00017734616994857788,0.0019126646220684052,354.2894598349653,13.10833086168016,14.744348144326743,0.01634800061583519,0.030988000333309174,0.009271999821066856
7,2022-04-20 01:35:34.674719,-46.89553006944913,-90.36248908145997,435.12004959872417,34.3157,29.9432,1005.5637,14.9377,353.90495177431853,14.276319676735374,14.912333231868622,30.543960571289062,-5.889193534851074,6.299938678741455,353.9055366092662,14.276262473901076,14.889293296250877,0.0025110915303230286,0.0004326626658439636,-0.00025937147438526154,353.4935694806087,15.311393864315786,15.093159075050124,0.020983999595046043,0.030743999406695366,0.01512799970805645
8,2022-04-20 01:35:39.907887,-47.03776932659437,-89.93792433721013,435.1695823628999,34.3691,29.9615,1005.5437,15.2733,353.02268684771786,16.240861374496756,15.24228088765172,30.26327896118164,-5.721846103668213,5.933359622955322,353.02370027703597,16.241112383948753,15.206770734156823,0.004136849194765091,0.00011211633682250977,-0.0005181804299354553,352.61662954023967,17.294501723788553,15.412407239498398,0.022204000502824783,0.0302559994161129,0.010735999792814255
9,2022-04-20 01:35:45.150065,-47.178495251470316,-89.51027230978994,435.2183363924192,34.4046,29.8391,1005.5554,15.6325,352.1087435037467,18.30379194725217,15.604436300466014,30.121862411499023,-5.830665588378906,6.050332546234131,352.10717768287947,18.303872201974915,15.575831468222,-0.0012705065310001373,-0.0016095787286758423,0.001578696072101593,351.6832577231744,19.246759326327666,15.767886142399004,0.02122800052165985,0.03147599846124649,0.01195599976927042
10,2022-04-20 01:35:50.384470,-47.31724107470786,-89.08090074658566,435.26614976126564,34.2446,29.8514,1005.55,15.947,351.23413351165834,20.200192262758915,15.917209445581115,29.857419967651367,-5.546822547912598,6.4408392906188965,351.23389787013195,20.198436904142223,15.886975613220054,-0.000832870602607727,-0.0008926913142204285,0.0015493836253881454,350.8469907055392,21.10886526201178,16.05591521969844,0.02000799961388111,0.030499998480081558,0.010247999802231789
11,2022-04-20 01:35:55.627282,-47.454421264828646,-88.64847690619867,435.31316517044127,34.458,30.1114,1005.5583,16.2201,350.42064005226325,22.06936061404482,16.18782154049702,30.18941879272461,-5.431918621063232,6.827026844024658,350.41824948605375,22.068604170594245,16.15512713248746,-0.002564016729593277,-0.0008579567074775696,-9.200349450111389e-05,350.02446346719313,22.923619203727487,16.315254087389242,0.02025200054049492,0.031231999397277832,0.011711999773979187
12,2022-04-20 01:36:00.864677,-47.58964824637722,-88.21416722103815,435.35924954516986,34.4402,30.0074,1005.5728,16.4474,349.6211245750046,23.812600767603204,16.404183150382806,30.33392906188965,-5.407425403594971,6.023230075836182,349.6200146692645,23.816265164092915,16.357708835722747,-0.0012906044721603394,0.0006446242332458496,-0.0007306765764951706,349.22091049436136,24.627549911065152,16.512417743065413,0.019763998687267303,0.030499998480081558,0.01659199967980385
13,2022-04-20 01:36:06.109971,-47.72324192666766,-87.7768908636865,435.4045117887007,34.3691,29.989,1005.5427,16.5927,348.85589237851116,25.334261046749912,16.55189965156267,30.533288955688477,-5.380419731140137,6.373396396636963,348.85556709075195,25.333629254251683,16.50914608245298,0.0019877292215824127,6.512552499771118e-05,0.0008437018841505051,348.50292186258326,26.084758817656326,16.634823270728504,0.018055999651551247,0.03147599846124649,0.013419999741017818
14,2022-04-20 01:36:11.350686,-47.85489579875098,-87.33759314693602,435.44884784162304,34.3513,29.9462,1005.5491,16.7023,348.1896432834696,26.872074723283696,16.658834800755685,30.32681655883789,-5.1825737953186035,6.547641277313232,348.187185269142,26.868806477765844,16.618002222350057,0.0012577101588249207,-0.0002065598964691162,0.0013700127601623535,347.8246917619638,27.636123589503416,16.751291656455564,0.020983999595046043,0.03147599846124649,0.015615999698638916
15,2022-04-20 01:36:16.586110,-47.98454165716742,-86.89647629612888,435.49223561646625,34.4224,29.8238,1005.5664,16.8251,347.4629777501246,28.3239919408154,16.77901880939123,30.60141944885254,-5.231097221374512,6.287445545196533,347.46222642931593,28.321647478382793,16.733917362754344,0.0010345429182052612,0.00022232532501220703,0.0007016360759735107,347.0667644527877,29.085892712541153,16.880197816661212,0.02147199958562851,0.030988000333309174,0.013175999745726585
16,2022-04-20 01:36:21.831558,-48.112561399930364,-86.45218114328462,435.5348027494784,34.3157,30.09,1005.5505,16.9805,346.6885709020286,29.80634789638327,16.949828180154906,30.461894989013672,-5.3655877113342285,6.5220513343811035,346.68808510482387,29.802164405516635,16.915736998460083,-0.0007224641740322113,0.0011425167322158813,-0.0008742120116949081,346.3538327223164,30.434359884903845,17.016111750955297,0.020739998668432236,0.03001200035214424,0.012931999750435352
17,2022-04-20 01:36:27.059553,-48.23826015212122,-86.00708899654309,435.57631899349656,34.3335,29.9982,1005.5649,17.0937,345.99067071037314,31.124215821264304,17.051384555376536,30.422279357910156,-5.085141181945801,6.485083103179932,345.9908730547273,31.12381625519786,17.009617948601907,-0.0003538578748703003,-0.001450657844543457,-0.0014252495020627975,345.6759953575742,31.870461799412386,17.119401286678816,0.02025200054049492,0.03001200035214424,0.013175999745726585
18,2022-04-20 01:36:32.292575,-48.362151756087975,-85.55936625210573,435.61695540840657,34.4046,29.9034,1005.5649,17.1809,345.33822542764415,32.52714009187951,17.13087771203173,30.293062210083008,-4.7652692794799805,6.21038293838501,345.33885722014236,32.52818169572794,17.075718811842,0.0003670826554298401,0.00010136514902114868,-0.0007719658315181732,345.06790020067336,33.16094749591084,17.155953044022137,0.02000799961388111,0.030988000333309174,0.012931999750435352
19,2022-04-20 01:36:37.532205,-48.484292947415945,-85.10872806326384,435.6567299245156,34.4402,29.9768,1005.5298,17.216,344.7597152351332,33.81523863726304,17.17875050792435,30.267005920410156,-5.038467884063721,6.4765944480896,344.75841579164364,33.81224359931199,17.142403656256125,0.003683820366859436,0.00047685950994491577,-0.0004355907440185547,344.462323676029,34.395780811052035,17.223606067751113,0.020983999595046043,0.031231999397277832,0.014883999712765217
20,2022-04-20 01:36:42.776667,-48.604605601948606,-84.65537901212029,435.6956163480203,34.3157,29.9279,1005.5322,17.2699,344.1551956822629,34.97168528639458,17.231921823065605,30.26017189025879,-4.945957660675049,6.43937873840332,344.1548251445004,34.97146672034114,17.19291973535754,0.000940956175327301,-0.0019169971346855164,0.00041171349585056305,343.8458051883342,35.56566244228099,17.278580552833255,0.020495999604463577,0.03171999752521515,0.010735999792814255
21,2022-04-20 01:36:48.008150,-48.72264460625549,-84.20097018045584,435.7334718697471,34.4402,29.9646,1005.5415,17.3238,343.54897199719466,36.248643793241826,17.272392401445224,30.466201782226562,-4.604553699493408,6.38503885269165,343.548775629256,36.24902628383535,17.221763624222504,0.0015758611261844635,0.0007521659135818481,0.0001228470355272293,343.2880263275016,36.85471721414832,17.297621412691957,0.01903199963271618,0.030988000333309174,0.011223999783396721
22,2022-04-20 01:36:53.251297,-48.83895428614251,-83.74336357557077,435.7704716354925,34.3513,29.7565,1005.5017,17.3395,343.02925265796466,37.49350041099001,17.309213951260762,30.39475440979004,-4.870073318481445,6.7708516120910645,343.0273965540577,37.493640429867995,17.277334043309725,7.188692688941956e-05,-0.00017057359218597412,0.0019187666475772858,342.76044373298964,38.0370297896667,17.347895020077836,0.019763998687267303,0.031231999397277832,0.010979999788105488
23,2022-04-20 01:36:58.492581,-48.95323157993637,-83.28367417447224,435.80651877285635,34.2802,30.0808,1005.5422,17.3968,342.49546312904437,38.66205698551998,17.363544691013626,30.838048934936523,-4.971477508544922,6.6741790771484375,342.4939553647851,38.65880923056964,17.32782280165446,0.0011361315846443176,-0.0018559247255325317,0.0015918482095003128,342.238934884197,39.35131186523348,17.4118836473171,0.019276000559329987,0.03171999752521515,0.018543999642133713
24,2022-04-20 01:37:03.735379,-49.06551851512418,-82.82168397957085,435.84162696477273,34.3513,29.8575,1005.5303,17.4051,342.04248156819455,39.745912384152625,17.356051973494125,30.72195816040039,-4.453794956207275,6.3583478927612305,342.04215884175625,39.74370281795613,17.302368394165114,-0.0021445192396640778,0.002182289958000183,0.0018898267298936844,341.8053203247388,40.275573063719605,17.36736105921237,0.02147199958562851,0.031231999397277832,0.012199999764561653
25,2022-04-20 01:37:08.969208,-49.175582593136724,-82.35832350430505,435.87572464296335,34.3157,29.8055,1005.531,17.3954,341.5221372666555,40.817022649794026,17.349476208870694,30.66482162475586,-4.481958389282227,6.518249988555908,341.5216437854879,40.81389100805957,17.303792488607062,0.002083122730255127,0.0007015615701675415,0.0015626512467861176,341.23745327450206,41.27928302263132,17.36946817257132,0.02147199958562851,0.0302559994161129,0.01756799966096878
26,2022-04-20 01:37:14.210383,-49.28374736279598,-81.89218706674552,435.90891265314576,34.3691,30.1634,1005.5464,17.3605,340.9840515487473,41.635426161428704,17.31246512130569,30.92344856262207,-4.51323938369751,6.592402458190918,340.9852485393993,41.63249601027477,17.269455420102116,0.0003827624022960663,8.103251457214355e-05,0.0002483949065208435,340.7616691271081,42.0261198121426,17.311561828787955,0.021715998649597168,0.030988000333309174,0.010247999802231789
27,2022-04-20 01:37:19.452064,-49.389852544978964,-81.42389243352899,435.9411415599945,34.3691,29.9554,1005.5613,17.3527,340.47980088044005,42.59070666403044,17.314999121487762,30.99720001220703,-4.313011646270752,6.870601177215576,340.4785099746869,42.589982663978425,17.272626335424295,0.0013730302453041077,-0.001917775720357895,-0.0009753759950399399,340.2404864198484,43.10875260691382,17.32896002815127,0.02000799961388111,0.0302559994161129,0.013663999736309052
28,2022-04-20 01:37:24.690677,-49.49381386120779,-80.95377080645636,435.9723864693593,34.2802,29.9126,1005.5378,17.349,340.01692066793555,43.54319361926165,17.321772961597123,30.753934860229492,-4.486640930175781,6.9812469482421875,340.01881604543024,43.54201882672441,17.295913865399452,0.0008367709815502167,0.00019485503435134888,0.0011584870517253876,339.81823558762176,43.92348147677503,17.333638707732728,0.02000799961388111,0.030743999406695366,0.01195599976927042
29,2022-04-20 01:37:29.933597,-49.59575490601813,-80.48121063453138,436.00268488249975,34.3157,30.0441,1005.5518,17.3478,339.60038158140236,44.40106196392067,17.316407848004076,30.644922256469727,-4.439542293548584,6.923415660858154,339.6029838834761,44.400829737488884,17.288130864840223,0.00030392780900001526,0.000417463481426239,0.001482594758272171,339.3565643186004,44.832098126967246,17.34143024602842,0.02122800052165985,0.03245199844241142,0.01512799970805645
30,2022-04-20 01:37:35.174635,-49.69554196811317,-80.00677531611747,436.0319973001258,34.2624,29.9523,1005.5657,17.3437,339.15813366283317,45.22144623041465,17.308674366316332,30.707828521728516,-4.282130718231201,6.929262638092041,339.15492518147056,45.22108764548322,17.28267695878797,-0.00042517855763435364,-0.0011395961046218872,-0.00013389438390731812,338.90952502232847,45.580027746745735,17.323827140990005,0.019276000559329987,0.029523998498916626,0.01634800061583519
31,2022-04-20 01:37:40.416373,-49.79320715708132,-79.53026768848576,436.0603337388132,34.2624,29.8667,1005.5776,17.3122,338.737648434507,45.87950080599953,17.276616873446876,30.487060546875,-3.984255313873291,6.9655375480651855,338.7384356138088,45.87785814550414,17.2460449467219,-0.003180231899023056,-0.002053637057542801,0.0016884226351976395,338.5293327874635,46.35451655711182,17.29344816710908,0.020983999595046043,0.03245199844241142,0.013663999736309052
32,2022-04-20 01:37:45.660407,-49.88876529757902,-79.05155600541363,436.0876986416436,34.3335,29.9034,1005.573,17.2977,338.3448357176031,46.756705416198855,17.269638127662414,30.784912109375,-4.257071495056152,6.994689464569092,338.3441253779294,46.7569000765902,17.242578625718117,0.004033900797367096,-0.0004029795527458191,0.00012965314090251923,338.1760310073608,47.17415291789169,17.275358411092302,0.01903199963271618,0.030499998480081558,0.015615999698638916
33,2022-04-20 01:37:50.896536,-49.98201403451921,-78.57162622031078,436.1140350979029,34.3335,30.0319,1005.5876,17.277,338.0323801762844,47.48020344931621,17.25533058889853,30.632638931274414,-4.101726531982422,7.052326202392578,338.0312429497876,47.48149777016393,17.230852898460498,4.495680332183838e-05,0.0013624131679534912,0.0006618909537792206,337.8426716720873,47.88976549761227,17.27033822205234,0.01903199963271618,0.0302559994161129,0.013907999731600285
34,2022-04-20 01:37:56.137833,-50.07317543801702,-78.08929774847395,436.1394065616201,34.3335,29.9523,1005.5349,17.2693,337.6919293971051,48.22846433326944,17.241467012430697,30.88736915588379,-4.104557514190674,6.816104888916016,337.6941457934908,48.22827308797269,17.209192661055095,-0.001152828335762024,-0.0005036517977714539,-0.0008118115365505219,337.45223244592,48.64808725021293,17.25789532493187,0.020739998668432236,0.03001200035214424,0.013419999741017818
35,2022-04-20 01:38:01.377294,-50.16210862894031,-77.60525514166454,436.16377387178875,34.2268,29.9707,1005.5781,17.2599,337.2596518471769,48.980502311833696,17.234821238368276,31.104284286499023,-4.1826887130737305,7.133175849914551,337.2593922999884,48.984504802687326,17.212807538673324,-4.728138446807861e-05,0.0010832175612449646,0.0007498245686292648,337.0424654919488,49.33034460112175,17.251367371632632,0.020739998668432236,0.030988000333309174,0.01634800061583519
36,2022-04-20 01:38:06.604861,-50.24863644916036,-77.12046976096943,436.18709043671726,34.3335,29.9952,1005.5737,17.252,336.8897475847492,49.57988897754275,17.239117427356213,30.81499671936035,-4.266279220581055,7.514800548553467,336.8922679245529,49.58125160028217,17.234945889320628,0.0005866400897502899,-0.000744946300983429,0.00020052306354045868,336.8407324397179,49.80604337115105,17.23957163493602,0.019763998687267303,0.029767999425530434,0.013175999745726585
37,2022-04-20 01:38:11.838065,-50.33304206489369,-76.6333326612127,436.20943363567204,34.298,29.9156,1005.5752,17.2499,336.6796970696565,50.12214794103382,17.238082653696956,31.010547637939453,-3.8736815452575684,7.19326639175415,336.67939312623844,50.12330907319272,17.213632284015603,-0.0002736896276473999,0.0004719570279121399,-0.0009892545640468597,336.5667957502235,50.401553904506116,17.22844696432536,0.02000799961388111,0.030988000333309174,0.012443999759852886
38,2022-04-20 01:38:17.086631,-50.41545110494954,-76.14298255777553,436.23083456474905,34.3513,29.5607,1005.5803,17.2194,336.41801886217496,50.74554613677005,17.18225951761044,31.062894821166992,-3.8668899536132812,6.669011116027832,336.41916633395556,50.74653309910512,17.140371674978045,-3.558024764060974e-05,0.001959383487701416,-0.00038761086761951447,336.19997873330067,51.15103739232079,17.1868698953002,0.02000799961388111,0.031964000314474106,0.012443999759852886
39,2022-04-20 01:38:22.327548,-50.49548362098966,-75.65159956699725,436.2511939292536,34.2624,30.2246,1005.5981,17.1656,336.0718273089983,51.49362943580487,17.122865900135302,30.920047760009766,-3.8896992206573486,6.436298370361328,336.0712860165066,51.49229754891672,17.079188547940365,-0.004319526255130768,0.0016568079590797424,0.0005520880222320557,335.9194543263518,51.74280156691611,17.100445804184737,0.02147199958562851,0.03269600123167038,0.011467999778687954
40,2022-04-20 01:38:27.570093,-50.57327194884148,-75.158350558297,436.2705464114045,34.3869,29.8575,1005.5698,17.0821,335.7666578719767,52.10961004610247,17.03996277153698,30.944931030273438,-3.7914206981658936,6.3584513664245605,335.7667090983955,52.1081688761876,16.994972315474108,-0.002435881644487381,0.0010209977626800537,-0.00025305338203907013,335.6412368157951,52.36115908304487,17.01170627894064,0.02147199958562851,0.0302559994161129,0.016835998743772507
41,2022-04-20 01:38:32.813814,-50.648792063060135,-74.66332796120305,436.2888859099049,34.2624,30.0808,1005.6089,16.9837,335.4925862862462,52.52687313268772,16.94310215136974,30.92568588256836,-3.606356620788574,6.589570999145508,335.4931992957242,52.526309642081195,16.907868620536227,0.0005251690745353699,0.000939786434173584,-0.00032145343720912933,335.34631778517036,52.73822992145918,16.92397591414641,0.02000799961388111,0.030743999406695366,0.013175999745726585
42,2022-04-20 01:38:38.058552,-50.72203067122833,-74.16656092968933,436.3062090811713,34.2802,29.8422,1005.5903,16.9048,335.2222491064444,53.0123015071897,16.8619560889354,31.053993225097656,-3.4965391159057617,6.327982425689697,335.22421790847267,53.014077356373896,16.813070717498327,0.0023828819394111633,-0.0014087371528148651,-0.0005886368453502655,335.10495597537505,53.27191699754188,16.825677539158878,0.02025200054049492,0.030743999406695366,0.011711999773979187
43,2022-04-20 01:38:43.301488,-50.79293189724325,-73.66838503154978,436.3225029452136,34.2802,29.8055,1005.5889,16.8206,334.97136259785145,53.580522019715985,16.79867950891711,30.85518455505371,-4.300712585449219,6.446842193603516,334.9710159657511,53.581840246225795,16.774350375093526,0.0004497505724430084,0.0006951168179512024,-0.0011368971318006516,334.860962835202,53.836527755091815,16.787973187393117,0.020739998668432236,0.0302559994161129,0.012199999764561653
44,2022-04-20 01:38:48.535561,-50.86139609561811,-73.16950867547335,436.33774620650047,34.3335,29.8514,1005.5957,16.7735,334.71553273984676,54.11183218996752,16.73741612715668,30.902755737304688,-3.7272913455963135,6.214907169342041,334.7154593153132,54.10921281242082,16.697346822390802,-0.0007089562714099884,-0.0005276575684547424,0.00038969703018665314,334.6087751755722,54.33838956473684,16.708898379824586,0.02000799961388111,0.029767999425530434,0.010979999788105488
45,2022-04-20 01:38:53.777139,-50.92762744801193,-72.6684040621366,436.3519845409986,34.3335,30.0625,1005.5867,16.6873,334.4726580431503,54.637739680585575,16.648102866022302,30.923948287963867,-3.5116794109344482,6.448156356811523,334.47419483571355,54.63950186939144,16.608682429227574,-0.001850038766860962,-0.0017315447330474854,0.00040046311914920807,334.3429339677915,54.83752271380845,16.619588533784793,0.019276000559329987,0.030743999406695366,0.012931999750435352
46,2022-04-20 01:38:59.017262,-50.99149447597118,-72.16598601279799,436.3651887419592,34.3157,30.1543,1005.5803,16.5922,334.2558883294616,55.07994320292513,16.557210123642356,31.111366271972656,-3.3244590759277344,6.609147071838379,334.25646377289917,55.07834493865934,16.523347753284728,0.0006116144359111786,-0.0008013918995857239,0.000181589275598526,334.12240765005936,55.2838038590825,16.535817971161876,0.021959999576210976,0.030743999406695366,0.010003999806940556
47,2022-04-20 01:39:04.252147,-51.05294273746938,-71.6626759433574,436.3773485500948,34.298,29.9003,1005.594,16.5278,333.95736125140786,55.605492108611756,16.499122779845983,30.936233520507812,-3.4103634357452393,6.731991291046143,333.95783765710246,55.60399971227811,16.47690246692864,-0.0008287280797958374,0.00012443214654922485,0.00044709816575050354,333.8111422692035,55.89593907287738,16.498632713773034,0.02147199958562851,0.03171999752521515,0.01439599972218275
48,2022-04-20 01:39:09.485930,-51.1120166374959,-71.1581022044465,436.38847364917467,34.2268,29.8636,1005.5698,16.4822,333.70216830854326,56.08518653930551,16.464604711328032,30.54074478149414,-3.165271520614624,7.0921454429626465,333.7014067424508,56.084616218509815,16.451822012296354,0.0011468492448329926,0.0004124492406845093,-0.001007305458188057,333.61611817028484,56.25270717398383,16.4585531637234,0.021715998649597168,0.03171999752521515,0.013175999745726585
49,2022-04-20 01:39:14.718835,-51.1687120881184,-70.65226337971966,436.3985633195203,34.2446,29.8575,1005.5928,16.4561,333.4981010391635,56.470661925493516,16.436657284791632,30.493085861206055,-2.9395852088928223,6.796346187591553,333.4964669164046,56.47199722747626,16.412574037778167,-0.0024732276797294617,-0.00020516663789749146,-0.000680951401591301,333.42519389241545,56.664188505436655,16.41863412311926,0.019763998687267303,0.030988000333309174,0.011467999778687954
50,2022-04-20 01:39:19.953648,-51.223038847535875,-70.14502088175904,436.4076188622981,34.2624,29.9952,1005.5867,16.4091,333.3393247541701,56.91979808984063,16.391945158937435,30.638803482055664,-3.2322232723236084,6.777858257293701,333.33858026355057,56.9242240524228,16.37089793101004,-0.0009078606963157654,-0.0010965168476104736,5.749985575675964e-06,333.21189732991974,57.088797460474254,16.37975668636355,0.019763998687267303,0.03147599846124649,0.012931999750435352
51,2022-04-20 01:39:25.195202,-51.275040991795926,-69.6358592900164,436.4156456937397,34.3157,30.087,1005.6052,16.3749,333.14487780623625,57.29718653205135,16.364236789021987,30.869400024414062,-3.020641565322876,7.267996311187744,333.1462677497324,57.29762366415822,16.356112279004257,0.0005690567195415497,0.00037826597690582275,-0.00024116411805152893,333.07914918830596,57.4802560923752,16.362433619081102,0.02025200054049492,0.030499998480081558,0.01439599972218275
52,2022-04-20 01:39:30.426914,-51.3245396477941,-69.12650444293203,436.422616322788,34.2802,29.9156,1005.634,16.3647,332.9979980032297,57.622679196948305,16.362638524756203,30.891258239746094,-3.0415220260620117,7.123828411102295,332.9983275598572,57.62303436678514,16.351916835306575,-6.332248449325562e-05,-0.0011406540870666504,0.0006388090550899506,332.91731639365895,57.849694194392015,16.359891081162566,0.02147199958562851,0.03171999752521515,0.014639999717473984
53,2022-04-20 01:39:35.661330,-51.37164369600846,-68.61585119164488,436.4285472270859,34.298,30.1267,1005.6448,16.3619,332.82757283060687,57.99421416704032,16.385386469786933,31.27545166015625,-3.0769200325012207,8.121459007263184,332.827678698539,57.99541628033424,16.405185480643507,0.0005006939172744751,0.000311240553855896,5.5167824029922485e-05,332.72929153109226,58.23674052408913,16.41731760415674,0.020739998668432236,0.030743999406695366,0.012199999764561653
54,2022-04-20 01:39:40.895067,-51.41633382257454,-68.1040417754081,436.4334348042436,34.298,30.1328,1005.6284,16.4267,332.63315320342974,58.43469989680361,16.4267108218128,31.19454574584961,-2.7732956409454346,7.69858455657959,332.63208086373004,58.43503457607294,16.430663793794945,-0.00045116618275642395,-0.0005476400256156921,1.0831281542778015e-05,332.56483935889855,58.627085835155356,16.43632943571147,0.01903199963271618,0.029767999425530434,0.014883999712765217
55,2022-04-20 01:39:46.135323,-51.458637763530334,-67.59065834696261,436.4372799403945,34.2446,29.7626,1005.634,16.4149,332.51831211027246,58.722223540104466,16.38987902671351,31.04419708251953,-2.472646713256836,6.976822376251221,332.51815501592154,58.72078920037876,16.3638696663541,0.001300852745771408,-0.001136094331741333,-0.0009200684726238251,332.5015337505763,58.942066838919665,16.36348717576058,0.02000799961388111,0.0302559994161129,0.013175999745726585
56,2022-04-20 01:39:51.368960,-51.49844889963155,-67.07695694474776,436.44007239770946,34.3335,29.9095,1005.6313,16.349,332.42704370748817,59.090015566531314,16.3287249279798,31.257083892822266,-2.6588244438171387,7.045352935791016,332.4271939716499,59.0889022456966,16.3085673321918,-0.0013477765023708344,-0.001507256180047989,0.0006389133632183075,332.36063890083,59.25247844612924,16.312458832471414,0.020495999604463577,0.03001200035214424,0.013175999745726585
57,2022-04-20 01:39:56.605461,-51.53583284901001,-66.56208133960736,436.4418169094613,34.298,30.399,1005.6279,16.2689,332.27316466812965,59.39052339944436,16.232287779541096,31.478960037231445,-2.7027699947357178,6.86190938949585,332.27421139461995,59.38934860690712,16.210656570439664,0.0003972388803958893,-0.0003187805414199829,0.0017552915960550308,332.1982016344415,59.51606910657837,16.216270985937417,0.018055999651551247,0.030743999406695366,0.013663999736309052
58,2022-04-20 01:40:01.843166,-51.57076885822836,-66.04623307159541,436.44251052861637,34.2091,29.9126,1005.6414,16.2154,332.1898192847826,59.6462320215913,16.215432580216795,31.220855712890625,-2.4282422065734863,7.657873153686523,332.19348368127226,59.64535092718837,16.217136712414714,-6.020069122314453e-06,0.0009018033742904663,0.001773180440068245,332.14194478134266,59.76023470902798,16.222766495838098,0.01903199963271618,0.031231999397277832,0.013663999736309052
59,2022-04-20 01:40:07.087245,-51.603279679946084,-65.52894917889,436.4421504845791,34.298,30.0258,1005.6309,16.216,332.1156519681327,59.89164754865903,16.20364708880394,31.029457092285156,-2.514406681060791,7.049135208129883,332.11762589280283,59.888464680505805,16.18878971981187,0.0003254637122154236,0.00228312611579895,0.0005466938018798828,332.0736445971898,59.97921057381859,16.19456635230241,0.020495999604463577,0.030988000333309174,0.01512799970805645
60,2022-04-20 01:40:12.320343,-51.633253679681985,-65.01201314965408,436.4407383235369,34.2446,30.0074,1005.6262,16.1607,332.0176694893943,60.05817439081311,16.121990469729145,30.813323974609375,-2.5843231678009033,6.373641490936279,332.0170701402946,60.057614315301166,16.084668608556903,-0.002726200968027115,-0.0017156265676021576,0.0020487550646066666,331.92981788874226,60.2257462519102,16.090977995802703,0.022204000502824783,0.0302559994161129,0.01659199967980385
61,2022-04-20 01:40:17.553076,-51.66075313420161,-64.49444993087774,436.43827380354463,34.2802,30.0594,1005.6323,16.0551,331.83602743860695,60.245977272231784,16.02085244359418,30.978504180908203,-2.2695865631103516,6.615237236022949,331.8349346083397,60.24596361185344,15.990941337671403,-0.0014394596219062805,-0.0005164965987205505,0.00018115155398845673,331.79110699198304,60.34693429835374,15.992613026470764,0.022447999566793442,0.029523998498916626,0.01195599976927042
62,2022-04-20 01:40:22.785043,-51.68577351073758,-63.97631497128514,436.43475645034084,34.3157,30.1328,1005.6169,15.9898,331.6519948216101,60.494015591940794,15.967921892621167,31.179412841796875,-2.3265771865844727,6.6646409034729,331.6529408028102,60.49319596924039,15.936052229953887,0.0004044957458972931,-0.0013613030314445496,-0.0004254467785358429,331.6759892761644,60.59844918435029,15.932918880672144,0.019763998687267303,0.030743999406695366,0.013419999741017818
63,2022-04-20 01:40:28.020694,-51.70832773627993,-63.45724935255264,436.43018181433587,34.3157,29.885,1005.6099,15.9134,331.632385348503,60.71368813602675,15.892571245697587,31.39665985107422,-2.120727062225342,6.995203971862793,331.63461199017246,60.71374960772928,15.871033951697244,-8.227303624153137e-05,-0.0013339444994926453,0.0007763002067804337,331.55892154133767,60.81960387948613,15.873798470763807,0.020495999604463577,0.0302559994161129,0.01634800061583519
64,2022-04-20 01:40:33.254457,-51.72838572918421,-62.93787333324383,436.4245537861035,34.2268,30.1175,1005.6274,15.8575,331.51186495305086,60.83536112590135,15.839312845644413,31.483858108520508,-2.124087333679199,6.9182024002075195,331.5123823398805,60.836488107114405,15.81632925908732,-0.0008886642754077911,0.0017380118370056152,-0.0010353997349739075,331.4539278734162,60.977995966338725,15.822358608577147,0.02025200054049492,0.029767999425530434,0.01659199967980385
65,2022-04-20 01:40:38.494245,-51.745971639441954,-62.4174407338481,436.41786196325415,34.2624,29.9217,1005.6147,15.8004,331.410429813687,60.97576249448013,15.776784171340237,31.126453399658203,-1.9304132461547852,6.801811695098877,331.40884350225224,60.97562589069673,15.75115047138518,-0.003643251955509186,-1.9662082195281982e-05,-0.00045311450958251953,331.391206246268,60.99179977865132,15.75097288646676,0.02025200054049492,0.032207999378442764,0.014639999717473984
66,2022-04-20 01:40:43.737188,-51.76106558144538,-61.89629739653314,436.41010689817415,34.2802,29.9768,1005.6335,15.7605,331.3676386785369,61.08256616253162,15.774318473049863,31.35517120361328,-1.7412066459655762,8.065006256103516,331.36958015980844,61.083542879582936,15.793963804650113,0.0026863068342208862,0.0026924535632133484,-0.0003587566316127777,331.3214392789909,61.13585529843606,15.798873003116059,0.020739998668432236,0.03001200035214424,0.010735999792814255
67,2022-04-20 01:40:48.970545,-51.77363212954069,-61.37578217263579,436.4013093615634,34.2624,30.0043,1005.627,15.79,331.2341597066819,61.31561904720163,15.772301859697418,31.424131393432617,-2.0255942344665527,6.989343166351318,331.23302589527964,61.314615009393634,15.75630043401937,0.0007011517882347107,0.0020628422498703003,0.0016333367675542831,331.17063553230616,61.41740252621316,15.763829010032016,0.02000799961388111,0.0302559994161129,0.015859998762607574
68,2022-04-20 01:40:54.211045,-51.78371100647424,-60.854278484177726,436.39144166711134,34.2802,29.7626,1005.6172,15.7392,331.1400840961487,61.43564596148626,15.716541902860726,30.896146774291992,-2.0820112228393555,6.853150844573975,331.14089347356537,61.43478535765084,15.69911638274073,-0.0009762383997440338,-0.0012350156903266907,-0.0008252114057540894,331.1026341689295,61.629821409400556,15.70050120359495,0.019519999623298645,0.031964000314474106,0.014639999717473984
69,2022-04-20 01:40:59.445070,-51.79127301493628,-60.33323701694255,436.380530027002,34.3157,30.0196,1005.6636,15.6924,331.09978256495106,61.70499447140571,15.68112054182504,31.15363883972168,-2.333371639251709,6.824920177459717,331.09745347044407,61.70827979239649,15.665798719969409,0.0004479624330997467,-0.0018467605113983154,0.0003757178783416748,331.0628483170142,61.80181240289065,15.665248889741223,0.01878799870610237,0.03171999752521515,0.01195599976927042
70,2022-04-20 01:41:04.684502,-51.79633558730162,-59.81145525023859,436.3685484015318,34.1557,30.1328,1005.6399,15.6566,331.0616462037203,61.95268445146706,15.645045190176324,31.35406494140625,-2.02109956741333,7.033559799194336,331.06258876982577,61.951386715524755,15.633449236512936,0.0019138120114803314,0.0011931583285331726,-0.0008326936513185501,331.03125186191374,62.031313589192244,15.635829557438685,0.02000799961388111,0.030988000333309174,0.01268799975514412
71,2022-04-20 01:41:09.920959,-51.79888676034479,-59.28998210945242,436.3555191833938,34.2268,29.9554,1005.6284,15.622,330.99347408561437,62.144305408631766,15.600917045496164,31.46247100830078,-2.0864293575286865,6.678576946258545,330.994925500813,62.14734484281242,15.574530317185113,0.0030915290117263794,-0.0011682584881782532,-0.002044668421149254,330.9519977618795,62.25849934136521,15.574040251112164,0.020983999595046043,0.030743999406695366,0.01268799975514412
72,2022-04-20 01:41:15.152721,-51.798931539883704,-58.76876716228421,436.3414420760318,34.298,29.8391,1005.6196,15.5499,330.88802962520776,62.36317199039565,15.52828481386225,31.4705753326416,-1.9068148136138916,6.91268253326416,330.8866260213333,62.3612253864822,15.512817850486755,-0.0010994486510753632,-0.0011391565203666687,-0.00025757215917110443,330.85944186843665,62.45416377051856,15.512445605176989,0.021959999576210976,0.03001200035214424,0.015859998762607574
73,2022-04-20 01:41:20.392870,-51.79646677611397,-58.24684398388037,436.32628848333337,34.2446,30.0686,1005.6257,15.4966,330.7842380705802,62.448112222913934,15.481875385999304,31.54693031311035,-1.6618648767471313,7.067636966705322,330.7838555799867,62.44740871342942,15.467113639655615,-0.0019355639815330505,0.001866854727268219,0.0018157623708248138,330.7604416915119,62.455126827191535,15.471467885251498,0.02025200054049492,0.030743999406695366,0.011711999773979187
74,2022-04-20 01:41:25.638121,-51.79148474708129,-57.72447618862105,436.3100610498529,34.2802,30.0839,1005.6211,15.4795,330.71297187678033,62.587400270658,15.4831748294889,31.48343276977539,-1.4682735204696655,7.4710164070129395,330.7120327257694,62.587598346143935,15.481836112411578,-0.004236094653606415,-0.0007635056972503662,0.00021319836378097534,330.6794049121043,62.62411253744682,15.481525338804342,0.019763998687267303,0.03147599846124649,0.013907999731600285
75,2022-04-20 01:41:30.869760,-51.78401093461562,-57.20364551801876,436.2928227952935,34.2802,29.885,1005.6274,15.4689,330.6684083075406,62.69466156138388,15.460862309017761,31.505977630615234,-1.6729559898376465,7.02876615524292,330.66745208105675,62.693131599009796,15.445583175844442,-0.00024704262614250183,-0.0018792711198329926,-8.345954120159149e-05,330.60328245380447,62.796335757368695,15.446377185335455,0.018055999651551247,0.02903600037097931,0.014883999712765217
76,2022-04-20 01:41:36.102078,-51.774034602706266,-56.682916298001956,436.27452896037425,34.2091,28.9457,1005.6162,15.4456,330.61203534122586,62.79761300274348,15.447521242021434,31.45851707458496,-1.4751038551330566,7.299801349639893,330.6117518883753,62.797927191445304,15.44122893024856,0.0010959021747112274,5.647540092468262e-06,0.0014124847948551178,330.57677790473025,62.79705292723154,15.442297854853667,0.02122800052165985,0.03147599846124649,0.01439599972218275
77,2022-04-20 01:41:41.346611,-51.76152786385901,-56.161274962388795,436.2551388523346,34.298,29.9003,1005.6208,15.4311,330.53482005265886,62.849017006437,15.42586100461603,31.359756469726562,-1.552320957183838,7.340143203735352,330.5368042226128,62.84778074219723,15.421158419372476,0.00029887259006500244,0.0018853172659873962,0.0004917047917842865,330.5015297106442,62.890974858508386,15.425160910226104,0.020495999604463577,0.031231999397277832,0.014151999726891518
78,2022-04-20 01:41:46.579499,-51.74654754976958,-55.64107015606997,436.2347384055718,34.2446,29.9432,1005.6272,15.4144,330.47413723697787,62.94523388127497,15.40727947497901,30.9807186126709,-1.520419955253601,7.173238754272461,330.47398355772157,62.944987994464846,15.404736937060473,-0.0015596263110637665,-0.00024405121803283691,0.00046500377357006073,330.3769265696157,63.03159479314061,15.409034833595705,0.019763998687267303,0.03001200035214424,0.013907999731600285
79,2022-04-20 01:41:51.820543,-51.729044508582994,-55.12046986757397,436.21325562638805,34.2802,30.194,1005.6375,15.399,330.3522320206715,63.073422871617765,15.387410454683444,31.23546028137207,-1.691775918006897,6.929380416870117,330.35287747354806,63.07606615482656,15.375846944418612,-0.001023717224597931,-0.0005182847380638123,0.00010285712778568268,330.3211034335292,63.09285475980646,15.375525925527622,0.01903199963271618,0.029767999425530434,0.011223999783396721
80,2022-04-20 01:41:57.053257,-51.70907677449916,-54.601146320913756,436.19075853121655,34.1913,30.2063,1005.614,15.3575,330.29691773367813,63.21708224043065,15.336225017043368,31.591785430908203,-1.3515849113464355,6.654143333435059,330.29651133742254,63.217430580078315,15.307953156521393,-0.0022058114409446716,0.0012769922614097595,0.00040010176599025726,330.2401178805403,63.34437647599218,15.313540251262463,0.01878799870610237,0.030743999406695366,0.013175999745726585
81,2022-04-20 01:42:02.183038,-51.68707631360313,-54.09227147711062,436.16767642037985,34.3335,29.9034,1005.6523,15.2586,330.2488571075834,63.41366191493278,15.201446601698798,31.720569610595703,-1.2095472812652588,5.896780967712402,330.24961184348666,63.413798518716185,15.143181672984005,-0.0003831051290035248,0.0003373250365257263,-0.0001775100827217102,330.22573691724284,63.44652878521889,15.14380492774577,0.019763998687267303,0.03171999752521515,0.013419999741017818
82,2022-04-20 01:42:07.422798,-51.66216398071299,-53.57354413674644,436.1430859398101,34.3335,29.8789,1005.637,15.0997,330.22425135109836,63.51891513004268,15.057059817739315,31.605287551879883,-1.3959864377975464,6.279895305633545,330.22501974738003,63.52058852638933,15.017924541342433,0.0011196061968803406,7.564574480056763e-05,0.00012753158807754517,330.1786256874427,63.457347804864185,15.016618267663668,0.02147199958562851,0.03147599846124649,0.012199999764561653
83,2022-04-20 01:42:12.663075,-51.63475299004635,-53.05513387864108,436.1174350876467,34.3157,30.09,1005.6094,14.9997,330.1259137025231,63.56305864264847,14.975903510021222,31.345129013061523,-1.2377160787582397,6.487685680389404,330.1251487213361,63.56300400113511,14.948978904313032,-0.00038750842213630676,0.0004056468605995178,0.0007373467087745667,330.1102725693238,63.54844203782464,14.950064904391065,0.020983999595046043,0.030743999406695366,0.014883999712765217
84,2022-04-20 01:42:17.894866,-51.604913079689744,-52.53824158281841,436.0907838796422,34.2802,30.3164,1005.6343,14.9294,330.07678415182323,63.56072271795233,14.903126136867444,31.753644943237305,-1.1428905725479126,6.508184909820557,330.07796235945506,63.56385777478136,14.873175757356938,-0.0035190992057323456,0.00041206181049346924,6.924569606781006e-05,330.0785429255345,63.597756003632135,14.87374266305805,0.019276000559329987,0.030743999406695366,0.011223999783396721
85,2022-04-20 01:42:23.133280,-51.572566067488246,-52.02144353587294,436.063058477132,34.2446,30.2185,1005.6279,14.8378,330.067051132256,63.7243125787633,14.807122705441039,31.735336303710938,-1.5116305351257324,6.426025390625,330.06787417005097,63.7243603900875,14.778550316595583,0.0004606395959854126,-0.0007723495364189148,-0.0008049774914979935,330.08010703885446,63.76375009103096,14.776825693830153,0.02122800052165985,0.030988000333309174,0.014639999717473984
86,2022-04-20 01:42:28.353490,-51.53787627317596,-51.50719056410001,436.0343928455198,34.2446,29.2639,1005.6882,14.7486,330.0430327720396,63.78253311124849,14.725534388257943,31.827266693115234,-1.3569470643997192,6.610561370849609,330.04352796075443,63.782888281085334,14.706136651015107,0.00017124414443969727,0.00017449259757995605,0.0013136900961399078,330.02850837476956,63.826690284232626,14.707492443565354,0.01878799870610237,0.030499998480081558,0.01268799975514412
87,2022-04-20 01:42:33.592747,-51.500605567771075,-50.99191990864271,436.0045870522608,34.2802,30.1359,1005.6975,14.6744,330.03534880922336,63.89853021392282,14.64014848589632,32.17007064819336,-0.9843285083770752,6.371224880218506,330.0365133564768,63.90025825178283,14.604650285232472,-0.0022717006504535675,0.0004795938730239868,0.0019244495779275894,330.0288601295118,63.87309458945369,14.606414181585627,0.020983999595046043,0.030743999406695366,0.013175999745726585
88,2022-04-20 01:42:38.837508,-51.46083869708134,-50.477002848513685,435.97371183235776,34.2268,30.1114,1005.6731,14.5771,329.9862499943747,63.93104191437208,14.546569771625268,32.08976745605469,-1.2548117637634277,6.3322954177856445,329.9848327301219,63.93685440535576,14.516819175147985,-0.0010503269731998444,0.00017386674880981445,0.0010081008076667786,329.9564601243097,63.93965478291547,14.517896637489555,0.02000799961388111,0.03147599846124649,0.014883999712765217
89,2022-04-20 01:42:44.069220,-51.4187304446227,-49.964328558669536,435.9418818883094,34.2446,30.0043,1005.6768,14.5022,329.95964299246293,63.95470168965701,14.489213258070087,31.695632934570312,-1.3803049325942993,6.640409469604492,329.9586184640874,63.956627803002945,14.478829662984374,-0.0016614943742752075,0.0010898038744926453,-0.0008242148905992508,329.9404262552331,63.936594858167304,14.479541710205348,0.019276000559329987,0.030499998480081558,0.011223999783396721
90,2022-04-20 01:42:49.302183,-51.374181682928366,-49.45254093152034,435.90901586276965,34.298,30.1114,1005.6587,14.4696,329.92816606567294,64.05345256467704,14.454075349884956,31.61907958984375,-0.8348766565322876,6.854517459869385,329.9289686129004,64.0546478477818,14.444393556736463,-0.0007456131279468536,-0.0004374012351036072,-0.00021342746913433075,329.88554227015743,64.18086291345446,14.446452858771222,0.020983999595046043,0.030499998480081558,0.01512799970805645
91,2022-04-20 01:42:54.545257,-51.32711655449332,-48.94081843122519,435.8750565773304,34.2624,30.0502,1005.6687,14.425,329.85487813587866,64.16972970510734,14.401715119707639,31.87445068359375,-1.1072814464569092,6.474702835083008,329.8552367208101,64.169354044703,14.378277325570739,-0.0001347176730632782,-0.0007429271936416626,0.0013138875365257263,329.86624357065756,64.21341559503875,14.377824825538227,0.019276000559329987,0.0302559994161129,0.011467999778687954
92,2022-04-20 01:42:59.775895,-51.27774886586836,-48.43142310071145,435.84015407260574,34.1557,30.0961,1005.6995,14.3455,329.85324913576164,64.31366911167619,14.310164117846433,32.31483840942383,-0.9813975691795349,6.116350173950195,329.851435720537,64.31054088503633,14.271106534851363,0.0026138946413993835,-0.000742986798286438,-0.0011291932314634323,329.84395324830126,64.42269259120793,14.26958084134551,0.020495999604463577,0.031231999397277832,0.013419999741017818
93,2022-04-20 01:43:05.014693,-51.22589652108805,-47.92239874408765,435.8041749471448,34.2268,30.139,1005.675,14.2312,329.82532732243465,64.46894663226726,14.192174307481755,31.59760093688965,-0.8183740973472595,5.948093414306641,329.8225064543074,64.46536761314218,14.15242516783322,0.00017087161540985107,-0.0007428601384162903,0.0003980174660682678,329.81043067985485,64.38617839990505,14.151135115853734,0.022447999566793442,0.0302559994161129,0.013419999741017818
94,2022-04-20 01:43:10.251191,-51.17166707884554,-47.41479853389953,435.767191083436,34.3513,30.1145,1005.6809,14.1463,329.73132684398234,64.41938677964966,14.135447025103861,31.56905746459961,-0.9107019305229187,6.505879878997803,329.7340930705962,64.41713964741271,14.123196227053798,-0.0007451437413692474,0.00017330050468444824,9.28882509469986e-05,329.7480334866922,64.35705447328411,14.123936448805097,0.020495999604463577,0.030988000333309174,0.011711999773979187
95,2022-04-20 01:43:15.487575,-51.11505180806588,-46.90847951213887,435.7291922104093,34.1735,30.0778,1005.6331,14.1254,329.7181855600192,64.45509500863048,14.12539810928748,31.71782684326172,-0.9296228885650635,6.885298252105713,329.7204941639587,64.45335331039213,14.129263142584062,-0.0010502375662326813,-0.0004375576972961426,-0.0011284630745649338,329.7102420500145,64.48514784097854,14.128179703826968,0.019276000559329987,0.030499998480081558,0.012199999764561653
96,2022-04-20 01:43:20.729980,-51.05599233941424,-46.40291068365921,435.6901361520926,34.1557,30.0564,1005.6394,14.1085,329.7079607668317,64.5593646764999,14.09213679557681,32.25215530395508,-0.694108784198761,6.659815311431885,329.70833301214145,64.5580669405576,14.077394686026985,0.002309400588274002,0.0001730695366859436,9.341910481452942e-05,329.73810239163896,64.6406302672447,14.076568233137413,0.020983999595046043,0.03171999752521515,0.01439599972218275
97,2022-04-20 01:43:25.963231,-50.99466647290165,-45.89954997260107,435.65013603721695,34.2268,30.2552,1005.6621,14.0614,329.7220582772786,64.65952257048896,14.04350584868632,32.273094177246094,-0.7312893271446228,6.311577320098877,329.7210166734302,64.65931766481386,14.016190214648146,0.00047664716839790344,0.0010887086391448975,0.0003985390067100525,329.73073261752455,64.67036208070176,14.018105228936689,0.02122800052165985,0.03001200035214424,0.011711999773979187
98,2022-04-20 01:43:31.193920,-50.931021571393345,-45.3978512029658,435.6091517798069,34.1557,30.0992,1005.6448,13.9885,329.6685095941857,64.74931906750712,13.954884144205405,32.37627029418945,-1.0878890752792358,6.003747940063477,329.6715387830826,64.74963325620894,13.921335108775947,0.00017072632908821106,-0.00013337284326553345,9.315274655818939e-05,329.64016772422474,64.74957861469558,13.921216434239119,0.020983999595046043,0.030499998480081558,0.014151999726891518
99,2022-04-20 01:43:36.438108,-50.86486368180912,-44.89630185135297,435.56705603852936,34.298,30.1757,1005.6265,13.9022,329.6080180238015,64.75670933218908,13.881892473866417,32.32532501220703,-0.837090253829956,6.287508487701416,329.60965726920233,64.75905208707438,13.852435575523444,-0.0010516457259654999,0.0023095309734344482,-0.0002117455005645752,329.5849763806365,64.80756692074898,13.856217792776338,0.019763998687267303,0.031231999397277832,0.013419999741017818
100,2022-04-20 01:43:41.680007,-50.796398679155736,-44.39647829352393,435.5239773153842,34.1379,29.9432,1005.6787,13.8293,329.5897916640013,64.84638971599134,13.804874407011706,32.33851623535156,-0.3202848434448242,6.4728899002075195,329.59009560741936,64.85100692387027,13.783485669625811,-0.0004412643611431122,0.0010873228311538696,-0.002043856307864189,329.6160844772113,64.80039522212047,13.784236990434513,0.02147199958562851,0.030743999406695366,0.018300000578165054
101,2022-04-20 01:43:46.923645,-50.72558699015629,-43.898041336185095,435.47988652549435,34.2802,30.0105,1005.6704,13.758,329.6043775329739,64.68944562924278,13.735551402030662,32.24861526489258,-0.4972841739654541,6.29022741317749,329.6049410235804,64.68941147829693,13.71074330119153,0.001696716994047165,0.0010869801044464111,-0.0005169548094272614,329.5943542303669,64.673544948855,13.711897603161262,0.019763998687267303,0.03001200035214424,0.01195599976927042
102,2022-04-20 01:43:52.168126,-50.65244746754697,-43.401090879524034,435.4347916498695,34.1557,30.1818,1005.6614,13.6997,329.5733309081016,64.74526193514014,13.68708011081202,32.166324615478516,-0.539713978767395,6.338882923126221,329.57508968181287,64.74916880334538,13.664727462979508,0.0010851621627807617,-0.00013525038957595825,-0.001432947814464569,329.5269744142047,64.8448734139956,13.66592701495249,0.021715998649597168,0.029767999425530434,0.01659199967980385
103,2022-04-20 01:43:57.413741,-50.57699241087002,-42.905673882871234,435.38869640895666,34.2091,29.9615,1005.6875,13.6342,329.48633478864315,64.76612133286535,13.601781293362317,32.425628662109375,-0.44299349188804626,6.06169319152832,329.48790231705766,64.76771959713113,13.570310342987836,-0.0007480233907699585,0.003223210573196411,0.0004001054912805557,329.47776631632934,64.95145168580447,13.576699131182737,0.019519999623298645,0.030499998480081558,0.013663999736309052
104,2022-04-20 01:44:02.654558,-50.49932069416239,-42.41237461841884,435.3416566416008,34.2624,29.9676,1005.7004,13.5516,329.48245865628917,64.96977708334762,13.526910467227928,31.806137084960938,-0.6869986653327942,6.041334629058838,329.4836095431643,64.97096553626321,13.503684408955301,-0.0007479414343833923,-0.0013585835695266724,9.469687938690186e-05,329.42984570911256,65.1197680375211,13.505596008149258,0.019276000559329987,0.031964000314474106,0.01439599972218275
105,2022-04-20 01:44:07.897028,-50.419351892895826,-41.92062108129164,435.29361917377855,34.1913,29.9615,1005.6858,13.4686,329.46514412674316,65.13258147240404,13.427970908232062,31.944263458251953,-0.5992640852928162,5.545564651489258,329.466462353253,65.1339133592922,13.385327475922734,0.0007790997624397278,-0.0004424378275871277,-0.000515991821885109,329.44131701182357,65.1200207545204,13.384170612632063,0.019519999623298645,0.03001200035214424,0.01659199967980385
106,2022-04-20 01:44:13.128392,-50.33730037142142,-41.43164262952403,435.2447076542885,34.1735,29.9126,1005.6772,13.3592,329.45950239048875,65.03852976753296,13.338217953669865,31.976016998291016,-0.18050546944141388,6.2078423500061035,329.4645430700962,65.04033293747385,13.316786527601657,-0.0004428587853908539,0.00138942152261734,-0.0008211713284254074,329.4248972370589,65.04933512679993,13.318322466391264,0.020983999595046043,0.03001200035214424,0.013419999741017818
107,2022-04-20 01:44:18.372187,-50.25281327339179,-40.943294675011074,435.1947077712328,34.2802,29.934,1005.676,13.2992,329.385411913467,65.06634229783326,13.274906368932077,32.39259719848633,-0.0578693151473999,6.1248779296875,329.38754634758266,65.06673161861595,13.246096631012964,0.001694459468126297,-0.002581454813480377,-0.00020972266793251038,329.3866447626122,65.17682743784738,13.24245101754347,0.02025200054049492,0.03001200035214424,0.014883999712765217
108,2022-04-20 01:44:23.610336,-50.166187956367274,-40.457277201781615,435.14379209738837,34.1735,30.0564,1005.6753,13.213,329.3758257429669,65.1458047186372,13.176207574104454,32.57640075683594,-0.4665225148200989,5.608452796936035,329.3753715353871,65.14913102076298,13.135468057026268,-0.0010544545948505402,0.00016715377569198608,9.562820196151733e-05,329.3496046467432,65.22575208287219,13.136786283536079,0.02000799961388111,0.0302559994161129,0.012443999759852886
109,2022-04-20 01:44:28.854885,-50.077243041464456,-39.97252812715257,435.0918500144732,34.1735,29.8942,1005.665,13.0869,329.3336220040854,65.27390491652078,13.039659285991206,32.51850128173828,-0.2548266053199768,5.573138236999512,329.3374639854935,65.27507970905802,12.997990863185896,-0.001971464604139328,0.0001665353775024414,9.577721357345581e-05,329.3307328340665,65.27290770890195,12.998309320755949,0.019276000559329987,0.030499998480081558,0.012931999750435352
110,2022-04-20 01:44:34.095597,-49.98616322634958,-39.49001627872816,435.0389855537735,34.1557,29.9585,1005.6584,12.9475,329.3402472875803,65.30798073028997,12.90244761575482,32.459022521972656,0.1320400983095169,5.745919227600098,329.3406229479847,65.30729771137297,12.863994504501294,-0.0004443228244781494,-0.0007499158382415771,0.00040150992572307587,329.34258321227645,65.37426771618495,12.863092065757206,0.017079999670386314,0.03001200035214424,0.01195599976927042
111,2022-04-20 01:44:39.328943,-49.89303005239247,-39.010083211293626,434.98524101587014,34.2091,30.2063,1005.6716,12.8399,329.3984131785521,65.43319175815465,12.808722906190258,32.606468200683594,0.5062476992607117,6.049053192138672,329.3977335747297,65.43649756971293,12.77284648380112,0.0007769763469696045,-0.0016661323606967926,0.0010124221444129944,329.40246006563535,65.45364134452966,12.771203823305733,0.020495999604463577,0.029523998498916626,0.012443999759852886
112,2022-04-20 01:44:44.562083,-49.79774136345794,-38.53212616866581,434.93055279199757,34.2446,30.1114,1005.676,12.75,329.36226098727525,65.48710927146273,12.728081423980857,32.36099624633789,0.04883325845003128,6.066958427429199,329.36136964758856,65.48814746021657,12.706915521516633,0.0013875365257263184,0.0004713088274002075,-0.001125432550907135,329.32598926768793,65.4749037234159,12.70657913470001,0.018300000578165054,0.03171999752521515,0.013175999745726585
113,2022-04-20 01:44:49.795830,-49.70029397349554,-38.05608240394001,434.8749151155238,34.1379,30.1543,1005.6643,12.6638,329.3785065922161,65.51477836779044,12.625433072265674,32.315757751464844,0.3907814025878906,5.737658977508545,329.37672391284275,65.51348746203732,12.591971121748134,0.0019974298775196075,0.0010819733142852783,-0.0002088341861963272,329.3530982885037,65.56710444702192,12.593902357735956,0.022447999566793442,0.030499998480081558,0.01268799975514412
114,2022-04-20 01:44:55.039669,-49.60051980872229,-37.581121419262075,434.81822896173156,34.2446,30.1634,1005.6567,12.5561,329.28208822679767,65.60333177037967,12.522509805436398,32.591819763183594,0.16088899970054626,5.811460494995117,329.28407581184615,65.60234822313917,12.491541727739559,-0.0022785402834415436,0.0016928240656852722,9.687431156635284e-05,329.26323348959386,65.62167765849031,12.494431751532122,0.020983999595046043,0.030743999406695366,0.013907999731600285
115,2022-04-20 01:45:00.279653,-49.4986979807302,-37.10854563793996,434.76064949732825,34.2446,30.0258,1005.6772,12.4572,329.24045139361726,65.62240165854234,12.423555732288545,32.673892974853516,0.0316513366997242,5.562058448791504,329.2395600539306,65.62945724395496,12.384837951204682,0.001385711133480072,0.0007762759923934937,-0.0005141738802194595,329.24667711104576,65.67159951113393,12.385456937098214,0.02122800052165985,0.031231999397277832,0.01268799975514412
116,2022-04-20 01:45:05.523484,-49.394697574319444,-36.637698553841915,434.70209881417924,34.2446,30.3195,1005.6714,12.3622,329.21776833538365,65.71563374071302,12.34296718404521,32.861629486083984,0.10195866227149963,6.105045795440674,329.21866650525953,65.71295630655837,12.329652584031917,-0.00044677406549453735,-0.0016676150262355804,-0.000514104962348938,329.1829412008058,65.74877381856591,12.32740630556863,0.02025200054049492,0.031964000314474106,0.013419999741017818
117,2022-04-20 01:45:10.757470,-49.28880416196224,-36.16980492001293,434.6427334429093,34.2091,30.087,1005.6658,12.3115,329.1934289562763,65.77838268861792,12.297368841146206,32.89345932006836,0.02006818726658821,6.140361785888672,329.19353823930305,65.77632680167774,12.287763887625875,0.0013856254518032074,0.0010813921689987183,9.67569649219513e-05,329.2058189194307,65.72298985444911,12.289672071725247,0.020739998668432236,0.030743999406695366,0.01634800061583519
118,2022-04-20 01:45:16.002757,-49.180610329730776,-35.70302101568192,434.58232132501865,34.1735,30.0472,1005.6436,12.2797,329.2061160326596,65.64849298117178,12.266983037076113,32.71413803100586,0.1704244464635849,6.060628890991211,329.2070995799001,65.64537158472109,12.252467177542542,-0.0004474259912967682,0.00016514956951141357,-0.0008192118257284164,329.1543466138455,65.7533773660665,12.255104484335813,0.020739998668432236,0.03171999752521515,0.007563999854028225
119,2022-04-20 01:45:21.247319,-49.07037011400402,-35.23842782131266,434.52100131776007,34.2268,29.9585,1005.6755,12.2388,329.122207158706,65.96828926830095,12.22739952951495,32.81877899169922,0.25055405497550964,6.204041957855225,329.12222081908436,65.96730572106047,12.217132901418774,-0.0010580271482467651,0.0007761716842651367,0.0013189110904932022,329.0947634586209,66.09932644752764,12.22105172245507,0.02122800052165985,0.03147599846124649,0.010491999797523022
120,2022-04-20 01:45:26.489432,-48.9581424448732,-34.776215408952304,434.4588023425197,34.1202,29.9615,1005.6499,12.235,329.0606671542842,66.20767373833156,12.254279738993535,32.92538070678711,0.2239929586648941,6.702625274658203,329.0615584939709,66.2071409835763,12.265316470918629,-0.001058228313922882,0.001386888325214386,9.699724614620209e-05,329.0298425105599,66.33016635090657,12.269551188204037,0.019276000559329987,0.031231999397277832,0.013907999731600285
121,2022-04-20 01:45:31.730640,-48.84391273857359,-34.31626457232963,434.3957125085528,34.1735,30.0564,1005.6777,12.257,329.0609335316618,66.32344544476328,12.24375100238796,32.88908004760742,0.5098960399627686,6.202828884124756,329.0611486826207,66.3273796337252,12.229469076833464,-0.0010581426322460175,0.00047093629837036133,-0.00020839273929595947,329.08200125015674,66.28260774371577,12.230498727850842,0.019519999623298645,0.031231999397277832,0.011711999773979187
122,2022-04-20 01:45:36.971080,-48.72769440353674,-33.85857562089646,434.33173559793136,34.1913,29.9646,1005.6946,12.2101,329.0936262321241,66.3460328803485,12.202147466379765,32.734771728515625,0.5659754872322083,6.536947250366211,329.09170011877814,66.34978948439202,12.202336150355588,0.002606108784675598,-0.00044499337673187256,-0.0008193161338567734,329.1131674033395,66.34987144666205,12.201266371976834,0.02025200054049492,0.031964000314474106,0.013663999736309052
123,2022-04-20 01:45:42.207729,-48.609574723721074,-33.40343056890964,434.2669159455608,34.2268,30.0931,1005.6746,12.1833,329.126404309951,66.35998012663367,12.16166749649004,32.65510559082031,0.5631313920021057,5.807452201843262,329.12613793257333,66.36105246633336,12.136556306006486,-0.00319710373878479,0.00016582757234573364,0.0007078927010297775,329.1102372521855,66.4002440917909,12.137641452310874,0.022204000502824783,0.03147599846124649,0.012931999750435352
124,2022-04-20 01:45:47.447784,-48.48940859030065,-32.95022052615213,434.2011705258715,34.2091,30.0502,1005.6809,12.1255,329.0655541546353,66.42523575396397,12.116291988512705,32.834529876708984,0.6954635381698608,6.220808982849121,329.06769200384554,66.42497620677551,12.106425780256622,-0.0004482567310333252,0.0007759332656860352,-0.0014297552406787872,329.07499689116287,66.36080657952324,12.106800586887326,0.02025200054049492,0.030988000333309174,0.013175999745726585
125,2022-04-20 01:45:52.689348,-48.36725587991229,-32.49913599879659,434.13452906802394,34.2446,30.1451,1005.6545,12.0821,329.0730229664927,66.37283454265165,12.05595238983752,32.83301544189453,0.8553727269172668,5.959050178527832,329.0719642871714,66.37104503308909,12.034520963769314,-0.0013638287782669067,0.001080922782421112,9.742937982082367e-05,329.0304708879636,66.3247841618406,12.035246671368627,0.020739998668432236,0.02903600037097931,0.017079999670386314
126,2022-04-20 01:45:57.927422,-48.243247899572076,-32.05060784375788,434.06705988379093,34.1913,30.0808,1005.6729,11.995,329.0174935285405,66.18943030305846,11.960275953717629,32.75625228881836,0.7973735332489014,5.659811019897461,329.01888005694207,66.19016113329965,11.927545687214927,-0.001058671623468399,0.0013860538601875305,9.763054549694061e-05,329.0100759431019,66.14698067736683,11.929541809999863,0.02122800052165985,0.032207999378442764,0.014883999712765217
