datetime,picture_file,latitude,longitude,temp_cpu,temp_h,temp_p,humidity,pressure,pitch,roll,yaw,mag_x,mag_y,mag_z,accel_x,accel_y,accel_z,gyro_x,gyro_y,gyro_z
2021-04-16 19:46:29.962262,atlantes_001.jpg,11.886358792746103,-45.17091307584031,44.39,34.48,31.79,30.39,983.42,7.45,71.12,102.53,-5.0307,-3.822,25.2093,-0.002222,0.030592,0.014622,0.305225,0.10314,-0.002145
2021-04-16 19:46:44.962429,atlantes_002.jpg,11.236406529064153,-44.6825306445223,47.62,34.5,31.79,30.1,983.44,344.69,198.55,125.88,-8.7845,-5.3102,33.1412,-0.003949,0.030349,0.015353,0.30492,0.104362,0.001215
2021-04-16 19:46:59.962440,atlantes_003.jpg,10.485258182639294,-44.12205556651482,47.62,34.38,31.77,30.24,983.49,359.01,23.61,92.0,-9.3343,-5.4971,33.3206,-0.001481,0.029135,0.01316,0.302782,0.104056,0.000604
2021-04-16 19:47:14.962711,atlantes_004.jpg,9.732912845562389,-43.56460967740422,47.62,34.44,31.74,30.06,983.45,356.46,161.77,128.08,-9.5366,-5.0359,32.5943,-0.004443,0.030349,0.017059,0.300949,0.104362,0.001215
2021-04-16 19:47:29.962854,atlantes_005.jpg,8.979464432934527,-43.009970996042505,48.69,34.48,31.71,29.84,983.45,332.19,282.3,105.15,-9.4583,-4.8565,32.3283,-0.003209,0.031077,0.019252,0.304309,0.101307,0.001826
2021-04-16 19:47:44.962878,atlantes_006.jpg,8.225005152309503,-42.457910711092474,48.69,34.48,31.67,30.0,983.46,9.01,83.44,109.23,-8.9933,-5.8939,31.3713,-0.002962,0.029621,0.01779,0.305225,0.103445,0.001215
2021-04-16 19:47:59.963053,atlantes_007.jpg,7.4696272112411135,-41.90819659612234,48.69,34.4,31.66,30.22,983.47,340.42,214.1,126.25,-9.2974,-5.5539,30.8344,-0.002222,0.030592,0.01584,0.2982,0.102834,-0.000618
2021-04-16 19:48:14.963079,atlantes_008.jpg,6.71341982907539,-41.360616915267826,48.15,34.25,31.64,30.26,983.46,1.8,35.22,97.03,-9.0305,-5.3154,30.1133,-0.002468,0.02865,0.014134,0.303698,0.104972,-7e-06
2021-04-16 19:48:29.963089,atlantes_009.jpg,5.956472225158366,-40.81494285719175,48.69,34.29,31.62,30.1,983.44,352.45,169.06,131.89,-9.1801,-5.3403,28.1675,-0.002715,0.028892,0.01584,0.302171,0.103751,0.001826
2021-04-16 19:48:44.963280,atlantes_010.jpg,5.198872338175606,-40.270955855840675,48.15,34.31,31.59,30.02,983.46,330.96,289.52,105.51,-8.968,-5.011,27.4944,-0.004937,0.031563,0.015353,0.302476,0.103751,0.000604
2021-04-16 19:48:59.967233,atlantes_011.jpg,4.440707253039028,-39.72844417535032,48.69,34.32,31.58,29.7,983.43,8.34,88.24,113.13,-8.9541,-4.8549,27.3058,-0.003703,0.029135,0.012916,0.306447,0.101307,0.000604
2021-04-16 19:49:14.967390,atlantes_012.jpg,3.682063627773725,-39.18718924966724,48.69,34.25,31.56,30.26,983.45,338.83,217.0,128.97,-8.7052,-4.7231,26.0121,-0.003703,0.03132,0.015353,0.305836,0.104362,0.000909
2021-04-16 19:49:29.967471,atlantes_013.jpg,2.9230264128575008,-38.64697592783259,48.15,34.19,31.55,30.01,983.43,0.75,37.61,100.28,-8.9645,-4.6337,25.4793,-0.003703,0.029378,0.018277,0.302476,0.104362,0.003658
2021-04-16 19:49:44.967597,atlantes_014.jpg,2.1636809856549792,-38.1075924739821,48.69,34.29,31.54,30.56,983.47,350.97,170.42,134.46,-8.9753,-4.9044,25.4177,-0.002468,0.031077,0.015597,0.307058,0.106805,0.001215
2021-04-16 19:49:59.967730,atlantes_015.jpg,1.4041121899222573,-37.56882373715691,48.69,34.25,31.54,30.44,983.46,330.75,291.25,107.5,-9.3513,-4.1646,24.0759,-0.003949,0.02865,0.018277,0.303087,0.104667,0.001215
2021-04-16 19:50:14.967789,atlantes_016.jpg,0.6444041223634907,-37.03045798149275,48.15,34.29,31.52,30.29,983.46,8.85,89.24,115.99,-8.5557,-4.163,23.033,-0.00469,0.031563,0.016328,0.303087,0.10314,-0.000923
2021-04-16 19:50:29.967840,atlantes_017.jpg,-0.11535898691503282,-36.49228688621994,48.69,34.32,31.52,30.11,983.47,338.09,217.9,130.17,-8.5847,-3.9273,22.4847,-0.003456,0.031077,0.01316,0.302782,0.103445,0.000604
2021-04-16 19:50:44.967988,atlantes_018.jpg,-0.8750932279721424,-35.95409530037961,48.69,34.31,31.52,30.06,983.42,1.87,38.36,101.69,-8.5702,-4.2721,21.2489,-0.001975,0.030835,0.016815,0.302782,0.105583,0.001215
2021-04-16 19:50:59.968123,atlantes_019.jpg,-1.6347145307841087,-35.415671488107506,48.69,34.17,31.51,30.07,983.44,350.75,171.34,137.06,-8.458,-4.1946,21.1034,-0.001975,0.028892,0.013891,0.302171,0.102834,0.000604
2021-04-16 19:51:14.968274,atlantes_020.jpg,-2.3941388253272025,-34.876807128633935,48.69,34.17,31.51,30.25,983.45,330.86,291.58,110.32,-8.114,-3.8211,19.7267,-0.00469,0.029135,0.014622,0.304004,0.105278,0.001215
2021-04-16 19:51:29.968431,atlantes_021.jpg,-3.1532816947321507,-34.33728707100004,48.69,34.27,31.5,30.44,983.48,8.42,89.94,118.92,-7.9161,-3.6302,19.6197,-0.004443,0.029863,0.012916,0.30156,0.104972,-0.000618
2021-04-16 19:51:44.968603,atlantes_022.jpg,-3.912058295242857,-33.796899579341556,48.69,34.27,31.51,30.29,983.47,337.68,218.37,133.08,-7.967,-3.72,19.5347,-0.00469,0.030835,0.013647,0.305225,0.102529,-7e-06
2021-04-16 19:51:59.968875,atlantes_023.jpg,-4.670384316711754,-33.25542950269963,48.69,34.29,31.51,30.11,983.44,0.97,38.6,104.26,-7.5144,-3.6438,19.0057,-0.003949,0.029863,0.018765,0.304309,0.106805,0.000909
2021-04-16 19:52:14.969045,atlantes_024.jpg,-5.4281728876703355,-32.71266510520998,49.23,34.15,31.49,30.16,983.46,350.77,170.5,139.41,-7.1717,-3.6962,18.1441,-0.002715,0.031563,0.014134,0.302782,0.103751,0.002131
2021-04-16 19:52:29.969182,atlantes_025.jpg,-6.185338630753977,-32.16839123591376,48.69,34.29,31.48,30.02,983.48,331.09,291.61,112.37,-6.9704,-3.5898,17.2429,-0.002715,0.029621,0.014622,0.303087,0.104362,0.000604
2021-04-16 19:52:44.969206,atlantes_026.jpg,-6.941794461050759,-31.622389328757524,48.69,34.19,31.49,30.14,983.5,7.79,89.67,120.6,-6.3208,-3.3253,17.5805,-0.00469,0.029135,0.017059,0.300644,0.1065,-7e-06
2021-04-16 19:52:59.969217,atlantes_027.jpg,-7.697451586101474,-31.07443740259325,48.69,34.19,31.49,30.33,983.51,336.57,218.15,133.66,-6.7109,-3.1259,16.4847,-0.002962,0.03302,0.019983,0.302171,0.10314,0.00152
2021-04-16 19:53:14.969365,atlantes_028.jpg,-8.45222249410738,-30.524316891367498,48.69,34.23,31.48,30.06,983.51,0.04,39.07,104.52,-6.1044,-3.3284,15.5113,-0.003703,0.029863,0.017546,0.303393,0.102834,0.002131
2021-04-16 19:53:29.969541,atlantes_029.jpg,-9.206015831288326,-29.971805813932242,48.69,34.27,31.48,30.38,983.51,349.9,170.87,138.68,-5.9516,-3.3067,15.1432,-0.003456,0.030349,0.015353,0.303393,0.105889,0.000909
2021-04-16 19:53:44.969922,atlantes_030.jpg,-9.958740243864167,-29.416682189139458,48.15,34.15,31.48,30.2,983.51,330.53,291.67,111.36,-6.0554,-3.1128,13.9845,-0.003703,0.031077,0.018521,0.306447,0.104667,0.001826
2021-04-16 19:53:59.970078,atlantes_031.jpg,-10.710303524281104,-28.858710375462774,48.69,34.21,31.47,30.15,983.52,7.28,90.27,118.69,-5.3391,-2.7438,14.4527,-0.001975,0.029863,0.017546,0.303087,0.104362,0.00152
2021-04-16 19:54:14.970243,atlantes_032.jpg,-11.460611757438052,-28.29766668420688,48.69,34.19,31.47,30.73,983.5,336.51,218.58,131.97,-5.1069,-3.1706,14.3338,-0.003949,0.029863,0.018277,0.302476,0.104972,0.001215
2021-04-16 19:54:29.970304,atlantes_033.jpg,-12.209569320686631,-27.733315473845405,49.23,34.15,31.47,30.12,983.49,359.92,39.64,103.34,-4.8797,-2.7761,13.8231,-0.004196,0.029863,0.016571,0.303698,0.103445,0.002131
2021-04-16 19:54:44.970408,atlantes_034.jpg,-12.957077176283875,-27.165421102851987,48.69,34.12,31.46,30.36,983.53,349.96,171.14,137.23,-4.8103,-2.6525,12.4535,-0.005184,0.030592,0.01779,0.301255,0.103751,-0.000312
2021-04-16 19:54:59.970478,atlantes_035.jpg,-13.703037994034108,-26.593744514605675,48.69,34.23,31.46,30.34,983.53,329.65,291.84,109.43,-4.7631,-1.7572,12.1829,-0.002962,0.030349,0.013403,0.305836,0.104972,-0.000312
2021-04-16 19:55:14.971080,atlantes_036.jpg,-14.447349321099786,-26.018041529843643,49.23,34.19,31.46,30.31,983.51,7.44,89.51,118.13,-4.1932,-2.0066,11.7187,-0.002468,0.030835,0.016815,0.303393,0.104362,0.001826
2021-04-16 19:55:29.971117,atlantes_037.jpg,-15.189906997096061,-25.438067969303056,48.69,34.21,31.47,30.23,983.52,337.25,218.33,132.01,-3.2433,-1.4629,11.1787,-0.003456,0.02865,0.013891,0.304309,0.10711,0.001215
2021-04-16 19:55:44.971154,atlantes_038.jpg,-15.930605154090802,-24.853569408437338,48.69,34.15,31.46,30.2,983.49,358.63,39.16,102.65,-3.3437,-2.0157,10.8335,-0.00469,0.031077,0.015353,0.306142,0.104056,-7e-06
2021-04-16 19:55:59.971246,atlantes_039.jpg,-16.669336216604577,-24.264294837794488,48.69,34.14,31.46,29.75,983.5,348.51,170.49,136.36,-2.9815,-1.9798,10.9501,-0.003703,0.030106,0.014866,0.303087,0.105278,0.000604
2021-04-16 19:56:14.971253,atlantes_040.jpg,-17.40599090161067,-23.66998300263875,48.69,34.17,31.45,30.01,983.53,329.91,292.21,108.26,-2.717,-2.2213,10.6684,-0.003703,0.031077,0.016815,0.300949,0.108027,0.001215
2021-04-16 19:56:29.971481,atlantes_041.jpg,-18.140451388345898,-23.070370940687088,48.69,34.23,31.45,30.36,983.49,5.68,89.96,115.64,-2.5058,-1.711,10.6238,-0.001481,0.028164,0.014622,0.301865,0.103751,0.00152
2021-04-16 19:56:44.971498,atlantes_042.jpg,-18.87260497868895,-22.465192274561865,49.23,34.06,31.44,29.99,983.53,335.59,218.09,128.37,-2.5948,-2.1938,10.5158,-0.001728,0.029378,0.014378,0.301255,0.101918,-0.000923
2021-04-16 19:56:59.971588,atlantes_043.jpg,-19.60233043678207,-21.854170381601694,48.69,34.06,31.45,30.38,983.5,358.11,40.07,99.18,-2.1197,-2.0765,9.6768,-0.002222,0.029135,0.015109,0.30156,0.103751,-7e-06
2021-04-16 19:57:14.971605,atlantes_044.jpg,-20.32950311167289,-21.237032054239776,49.23,34.21,31.45,30.19,983.51,348.01,170.92,132.83,-2.2688,-1.7758,10.2059,-0.002468,0.030349,0.015353,0.302476,0.104362,-7e-06
2021-04-16 19:57:29.971605,atlantes_045.jpg,-21.05400005995636,-20.613488716983678,48.69,34.19,31.45,30.1,983.49,329.29,292.13,104.33,-1.842,-1.6559,10.0703,-0.003209,0.029621,0.017059,0.302782,0.105278,0.001826
2021-04-16 19:57:44.971685,atlantes_046.jpg,-21.77568809294366,-19.98325691698285,49.23,34.21,31.46,30.28,983.47,5.69,89.72,111.18,-1.4896,-1.2885,10.2076,-0.002468,0.029863,0.019983,0.300949,0.102529,0.001826
2021-04-16 19:57:59.971704,atlantes_047.jpg,-22.49443402194598,-19.346037833461093,49.23,34.08,31.45,30.09,983.49,336.95,217.68,124.79,-1.5665,-1.0362,10.1112,-0.002222,0.029135,0.019008,0.303393,0.103445,0.000299
2021-04-16 19:58:14.971786,atlantes_048.jpg,-23.210102950727208,-18.701536060736814,49.23,34.23,31.44,29.63,983.48,358.74,39.2,94.83,-1.7149,-1.2822,9.2625,-0.002715,0.028892,0.016084,0.30156,0.105278,0.000299
2021-04-16 19:58:29.971850,atlantes_049.jpg,-23.92254803022019,-18.049442532750064,48.69,34.04,31.44,30.19,983.5,348.93,170.64,128.52,-1.7092,-1.5251,8.4047,-0.004196,0.030106,0.016328,0.303393,0.104972,-0.000618
2021-04-16 19:58:44.971947,atlantes_050.jpg,-24.63162753399965,-17.3894481834409,48.69,34.14,31.43,30.25,983.46,330.33,292.25,100.14,-0.8107,-1.8032,9.1815,-0.003209,0.031077,0.017302,0.304309,0.10711,-7e-06
2021-04-16 19:58:59.972030,atlantes_051.jpg,-25.33718778280926,-16.72123540901292,48.69,34.08,31.44,30.0,983.5,5.69,89.95,107.21,-0.5986,-1.5027,8.5419,-0.003209,0.032049,0.014134,0.304309,0.10314,-0.000312
2021-04-16 19:59:14.972121,atlantes_052.jpg,-26.03907168229811,-16.044479775480546,49.23,34.23,31.44,30.09,983.47,337.15,218.04,120.32,-0.3067,-1.2203,8.5646,-0.003209,0.030835,0.014134,0.299422,0.10314,0.00152
2021-04-16 19:59:29.972209,atlantes_053.jpg,-26.737122138115293,-15.35885343376362,48.69,34.15,31.44,30.01,983.51,357.63,39.02,90.87,-0.3631,-1.0952,8.5515,-0.002715,0.028892,0.013647,0.305836,0.105889,0.002437
2021-04-16 19:59:44.972223,atlantes_054.jpg,-27.431170103078845,-14.664018289498223,48.69,34.15,31.43,30.26,983.52,348.26,176.64,123.62,-0.0475,-1.1439,8.6289,-0.002962,0.030349,0.014866,0.302171,0.105583,0.00152
2021-04-16 19:59:59.972367,atlantes_055.jpg,-28.12104482245952,-13.95963624832044,48.69,34.19,31.43,30.04,983.52,344.96,10.53,83.28,-0.166,-0.9115,9.5699,-0.003209,0.029135,0.017059,0.299422,0.104056,-0.000312
2021-04-16 20:00:14.972490,atlantes_056.jpg,-28.806568711338898,-13.245358116808955,49.77,34.21,31.42,30.02,983.52,353.19,145.9,117.72,0.5106,-1.119,8.8529,-0.002962,0.030349,0.017302,0.303087,0.102529,-0.000923
2021-04-16 20:00:29.972666,atlantes_057.jpg,-29.487559062156677,-12.520831286447867,48.69,34.14,31.43,29.88,983.51,326.83,269.35,99.82,0.2086,-1.2181,8.7642,-0.003209,0.030349,0.018521,0.301255,0.104667,0.001826
2021-04-16 20:00:44.972745,atlantes_058.jpg,-30.16382292206881,-11.785696318532102,48.69,34.21,31.43,30.22,983.51,4.03,74.58,94.44,0.4288,-1.2942,8.7396,-0.002715,0.02865,0.016815,0.304004,0.103445,0.002131
2021-04-16 20:00:59.972790,atlantes_059.jpg,-30.835169045778535,-11.03958865171471,48.69,34.1,31.42,29.36,983.51,338.43,204.94,115.65,0.8814,-1.4134,8.3467,-0.002468,0.029863,0.019252,0.301865,0.103751,0.003353
2021-04-16 20:01:14.972817,atlantes_060.jpg,-31.501395942705333,-10.282139455780515,48.69,34.15,31.41,30.25,983.51,352.44,31.4,79.89,0.9882,-1.1771,7.8422,-0.003703,0.030592,0.016084,0.303087,0.104362,0.000604
2021-04-16 20:01:29.972922,atlantes_061.jpg,-32.162285046795766,-9.512973070325161,48.69,34.15,31.42,30.33,983.53,348.66,169.34,114.36,1.3573,-1.274,8.064,-0.00469,0.031563,0.018277,0.304004,0.106805,0.000299
2021-04-16 20:01:44.973023,atlantes_062.jpg,-32.81762803728015,-8.731711273623361,48.69,34.02,31.41,29.97,983.51,341.27,6.16,72.31,1.5032,-1.0999,7.8842,-0.003703,0.030106,0.017302,0.303698,0.104972,0.003047
2021-04-16 20:01:59.973178,atlantes_063.jpg,-33.46719951791587,-7.9379707213079485,48.69,34.02,31.41,30.02,983.49,352.77,141.99,105.91,1.2744,-1.1478,8.233,-0.002715,0.029378,0.015109,0.301255,0.105583,0.001826
2021-04-16 20:02:14.973251,atlantes_064.jpg,-34.11076384717657,-7.131364227030348,48.69,34.14,31.4,30.38,983.5,324.29,265.76,90.17,1.5222,-1.5473,8.065,-0.002715,0.030106,0.015597,0.30156,0.104362,-7e-06
2021-04-16 20:02:29.973269,atlantes_065.jpg,-34.74808538353587,-6.311502470007867,48.15,34.12,31.41,30.08,983.51,1.01,73.09,82.28,1.8571,-1.4832,7.3965,-0.002715,0.029378,0.017059,0.30156,0.102529,0.000604
2021-04-16 20:02:44.973283,atlantes_066.jpg,-35.37891482508908,-5.477993568136878,48.15,34.17,31.4,30.09,983.48,337.56,203.19,104.71,1.3449,-1.2953,7.8033,-0.002962,0.029863,0.016328,0.302171,0.104972,-0.000312
2021-04-16 20:02:59.973429,atlantes_067.jpg,-36.002996039742314,-4.63044563931375,47.62,34.08,31.4,30.19,983.51,353.5,29.99,68.34,1.7031,-1.22,7.0576,-0.00469,0.029621,0.018765,0.303698,0.105278,0.00152
2021-04-16 20:03:14.973430,atlantes_068.jpg,-36.62006265011795,-3.768464240113917,48.69,34.08,31.39,30.3,983.51,349.84,161.93,103.35,2.4643,-1.7378,7.2575,-0.002715,0.031563,0.015597,0.304004,0.103751,-0.000312
2021-04-16 20:03:29.973470,atlantes_069.jpg,-37.229844863743764,-2.891658342207394,48.15,34.08,31.38,30.26,983.46,328.57,284.46,78.79,2.2207,-1.9406,7.4826,-0.002715,0.029621,0.016815,0.304614,0.106194,0.000299
2021-04-16 20:03:44.973628,atlantes_070.jpg,-37.83205581267462,-1.999636917264198,48.15,34.02,31.38,30.47,983.49,5.91,84.81,81.9,2.5945,-1.5257,7.6586,-0.004196,0.030106,0.016815,0.302476,0.105889,0.00152
2021-04-16 20:03:59.973742,atlantes_071.jpg,-38.42640862896537,-1.0920136327094006,48.15,34.06,31.36,30.36,983.47,336.73,214.13,97.53,2.0668,-1.7444,7.9617,-0.004196,0.030106,0.01779,0.303087,0.104056,0.001215
2021-04-16 20:04:14.973832,atlantes_072.jpg,-39.01260278429255,-0.16840687840355334,47.62,34.04,31.37,30.35,983.47,358.47,37.0,66.7,1.6888,-1.5889,7.3241,-0.004196,0.030592,0.017546,0.304309,0.105583,0.001826
2021-04-16 20:04:29.973986,atlantes_073.jpg,-39.59032408995432,0.7715582323253273,47.62,34.04,31.36,30.39,983.48,350.1,176.12,101.83,1.4914,-1.9329,7.7409,-0.003949,0.031806,0.016815,0.30156,0.1065,0.000909
2021-04-16 20:04:44.973999,atlantes_074.jpg,-40.15925835724887,1.7282479950519096,47.62,33.98,31.36,30.38,983.49,351.51,7.42,63.0,1.5366,-1.7811,7.3612,-0.002468,0.03132,0.01584,0.302782,0.10711,0.000909
2021-04-16 20:04:59.974091,atlantes_075.jpg,-40.71907773709604,2.7020177130151666,48.69,34.02,31.35,30.13,983.51,359.51,147.48,98.3,1.7026,-2.0817,7.1961,-0.003456,0.029863,0.015597,0.296979,0.105889,-0.000312
2021-04-16 20:05:14.974267,atlantes_076.jpg,-41.26944413513191,3.6932100696123626,48.15,34.08,31.36,30.23,983.53,330.08,269.75,80.49,1.6468,-2.0653,7.5648,-0.003456,0.029863,0.019983,0.304004,0.104972,-0.000618
2021-04-16 20:05:29.974434,atlantes_077.jpg,-41.8100126268034,4.702151526541483,48.15,34.06,31.35,30.12,983.5,7.85,74.48,76.95,1.8152,-2.6288,7.6364,-0.004196,0.030349,0.016571,0.304309,0.108332,0.000909
2021-04-16 20:05:44.974565,atlantes_078.jpg,-42.34042462717908,5.729152003636117,47.62,34.1,31.34,30.51,983.52,340.29,206.33,99.29,1.4718,-2.4161,8.0756,-0.003209,0.029621,0.015597,0.303698,0.107721,0.000604
2021-04-16 20:05:59.974565,atlantes_079.jpg,-42.86031813623294,6.774499222615052,47.62,34.0,31.34,30.2,983.48,359.03,30.24,66.43,1.4171,-3.1118,8.3257,-0.004443,0.031077,0.013647,0.300644,0.104667,0.000299
2021-04-16 20:06:14.974614,atlantes_080.jpg,-43.36932090865522,7.838456572648155,47.62,34.12,31.33,30.12,983.53,353.47,165.34,101.82,1.4939,-2.752,7.8988,-0.003456,0.03132,0.017546,0.301865,0.105583,0.000299
2021-04-16 20:06:29.974753,atlantes_081.jpg,-43.867050453852386,8.921262683469555,48.15,34.04,31.33,30.41,983.53,329.2,286.49,75.93,1.5456,-2.7707,8.0766,-0.002715,0.030349,0.014622,0.303698,0.104972,0.001215
2021-04-16 20:06:44.974849,atlantes_082.jpg,-44.35312428123093,10.023122460754353,48.15,33.93,31.33,30.21,983.55,8.09,86.1,82.51,1.1801,-3.1975,7.7197,-0.003949,0.031077,0.018765,0.306142,0.104362,0.000604
2021-04-16 20:06:59.974995,atlantes_083.jpg,-44.8271428247244,11.144210074326383,47.62,33.93,31.33,30.41,983.55,337.54,215.44,99.35,1.1414,-3.2222,6.9583,-0.002468,0.030592,0.013647,0.304309,0.1065,-7e-06
2021-04-16 20:07:14.975128,atlantes_084.jpg,-45.28870651826635,12.284658712874458,47.62,34.0,31.32,30.14,983.54,1.08,36.52,69.65,1.4347,-3.2523,7.4377,-0.003949,0.030349,0.017059,0.303698,0.106194,-0.000312
2021-04-16 20:07:29.975166,atlantes_085.jpg,-45.73740555050659,13.44456229149967,47.62,34.0,31.31,30.41,983.54,351.83,176.55,104.96,1.5873,-2.9235,7.7895,-0.002468,0.029135,0.017059,0.303698,0.105278,0.000604
2021-04-16 20:07:44.975255,atlantes_086.jpg,-46.1728301100949,14.62396776775256,48.69,33.95,31.31,30.37,983.52,352.26,6.39,67.42,0.7517,-3.3735,6.8995,-0.003209,0.031077,0.013647,0.303087,0.105889,0.000299
2021-04-16 20:07:59.975423,atlantes_087.jpg,-46.594566970586506,15.822875995406775,48.15,33.87,31.3,30.09,983.53,1.15,146.63,104.77,0.9917,-3.8394,6.8828,-0.003703,0.031077,0.017302,0.304004,0.104972,0.002437
2021-04-16 20:08:14.975452,atlantes_088.jpg,-47.00219266025287,17.041229771628018,48.15,34.04,31.3,30.31,983.52,330.57,268.52,87.22,0.64,-3.707,6.043,-0.003456,0.028407,0.013891,0.300949,0.103445,0.003047
2021-04-16 20:08:29.975467,atlantes_089.jpg,-47.39529053755461,18.278919813389567,48.15,34.06,31.29,30.24,983.55,9.03,73.37,84.32,0.7677,-4.1449,7.2131,-0.005184,0.029621,0.014622,0.300949,0.103445,0.000604
2021-04-16 20:08:44.975582,atlantes_090.jpg,-47.77344054585778,19.53577365841488,48.15,34.02,31.29,29.98,983.51,342.2,205.23,107.28,0.4853,-4.2073,6.4748,-0.002962,0.028892,0.018521,0.299727,0.104362,0.000299
2021-04-16 20:08:59.975636,atlantes_091.jpg,-48.13622262852842,20.811552250083,48.15,33.98,31.29,30.18,983.5,1.49,28.11,74.4,0.3588,-4.1208,5.5435,-0.002962,0.029863,0.017059,0.303698,0.106194,0.000604
2021-04-16 20:09:14.975643,atlantes_092.jpg,-48.48322355912175,22.105955060070457,48.15,34.06,31.28,30.32,983.53,356.29,165.02,110.05,0.3884,-3.5516,5.4898,-0.003209,0.031077,0.017302,0.305225,0.106194,-0.000618
2021-04-16 20:09:29.975730,atlantes_093.jpg,-48.814026696098395,23.41860301287831,47.62,33.93,31.28,29.07,983.53,331.48,285.68,86.11,0.3228,-3.8968,4.9267,-0.00469,0.028892,0.017059,0.30492,0.105583,0.000909
2021-04-16 20:09:44.975828,atlantes_094.jpg,-49.128235888486486,24.749050438663218,47.62,33.95,31.27,29.94,983.55,10.45,85.58,93.35,-0.2865,-4.0532,6.0335,-0.004196,0.028892,0.01584,0.302782,0.104972,0.000299
2021-04-16 20:09:59.975861,atlantes_095.jpg,-49.42544474003042,26.09677482795367,48.15,34.04,31.26,30.52,983.52,339.37,215.2,110.56,-0.0522,-4.6542,4.906,-0.002962,0.029621,0.018034,0.303087,0.105278,0.000604
2021-04-16 20:10:14.975920,atlantes_096.jpg,-49.70527417523126,27.46117512410271,48.15,34.0,31.27,30.34,983.53,2.75,35.37,82.54,-0.4133,-4.9047,4.2891,-0.003456,0.029863,0.015353,0.303087,0.1065,0.001826
2021-04-16 20:10:29.975931,atlantes_097.jpg,-49.96734511859007,28.84157001574063,48.15,33.96,31.25,30.31,983.51,353.47,169.9,118.19,-0.4864,-4.3018,4.1468,-0.001481,0.030592,0.015353,0.30156,0.105278,0.001215
2021-04-16 20:10:44.976068,atlantes_098.jpg,-50.21129898517541,30.237209889606014,47.62,33.89,31.26,30.39,983.5,331.04,289.85,92.86,-0.4218,-4.7547,3.3728,-0.003703,0.031806,0.018034,0.303087,0.10314,0.002437
2021-04-16 20:10:59.976109,atlantes_099.jpg,-50.436794265528796,31.647254632430954,47.62,34.06,31.25,30.33,983.53,9.41,88.43,101.33,-0.8799,-5.0681,3.8397,-0.003209,0.030592,0.017302,0.301255,0.106805,0.001215
2021-04-16 20:11:14.976216,atlantes_100.jpg,-50.64350652566465,33.07079924415043,48.15,33.96,31.25,30.33,983.52,338.22,217.44,116.99,-1.0501,-4.9324,2.794,-0.002468,0.028164,0.015597,0.303393,0.101918,0.001826
2021-04-16 20:11:29.976230,atlantes_101.jpg,-50.83112840707032,34.506856762429365,47.62,34.02,31.24,30.27,983.53,5.23,37.11,89.41,-1.1632,-5.0518,3.4293,-0.003209,0.029863,0.015597,0.303698,0.105278,0.001826
2021-04-16 20:11:44.976309,atlantes_102.jpg,-50.999379871989824,35.954378753230166,47.62,34.0,31.24,29.84,983.52,354.28,172.45,124.81,-1.1258,-5.658,2.3536,-0.004443,0.030349,0.013891,0.302171,0.106805,0.001215
2021-04-16 20:11:59.976375,atlantes_103.jpg,-51.1480047883293,37.412234820245196,48.15,34.04,31.24,30.22,983.5,330.71,292.31,98.85,-1.2107,-5.2962,0.9213,-0.004196,0.029621,0.014622,0.303393,0.103751,0.000299
2021-04-16 20:12:14.976502,atlantes_104.jpg,-51.27677092965696,38.87925017093722,48.15,33.95,31.24,30.15,983.54,11.45,89.74,110.48,-1.2102,-5.394,0.9681,-0.003703,0.028892,0.015109,0.303087,0.102223,0.003353
2021-04-16 20:12:29.976699,atlantes_105.jpg,-51.38547339029772,40.35418171087728,48.15,33.98,31.24,29.76,983.48,339.03,218.9,126.18,-1.3991,-5.8197,0.3296,-0.002468,0.029863,0.018277,0.300949,0.104056,0.001826
2021-04-16 20:12:44.976748,atlantes_106.jpg,-51.47394141552231,41.83574536450143,48.15,34.02,31.23,30.38,983.52,6.88,37.53,100.28,-1.1962,-6.1345,1.0185,-0.003456,0.029135,0.015597,0.302476,0.104362,0.000909
2021-04-16 20:12:59.976829,atlantes_107.jpg,-51.54203498645275,43.32260582982692,48.15,33.96,31.23,30.63,983.5,355.25,173.16,135.49,-1.5011,-5.2678,0.4226,-0.003703,0.029621,0.015597,0.299422,0.105278,0.001215
2021-04-16 20:13:14.976999,atlantes_108.jpg,-51.589637989873154,44.81340389920892,48.15,33.96,31.23,30.32,983.54,332.0,292.86,109.22,-1.5279,-6.1099,-0.4208,-0.004937,0.029135,0.017546,0.304614,0.1065,-0.001839
2021-04-16 20:13:29.977140,atlantes_109.jpg,-51.61667870879724,46.30674621405675,47.62,33.91,31.21,30.72,983.49,13.46,90.25,122.81,-1.7448,-5.6621,-1.6275,-0.003456,0.030106,0.016571,0.303698,0.104667,-0.000923
2021-04-16 20:13:44.977151,atlantes_110.jpg,-51.6231093319008,47.80122575540139,48.15,34.04,31.22,30.29,983.5,338.28,220.39,142.12,-1.5525,-6.2528,-1.9858,-0.003949,0.031077,0.014378,0.301255,0.106194,0.001215
2021-04-16 20:13:59.977174,atlantes_111.jpg,-51.6089196139001,49.29543550427382,47.62,33.91,31.21,30.47,983.5,11.23,36.91,118.17,-1.5582,-6.3969,-1.934,-0.003456,0.029378,0.018034,0.301255,0.104362,0.000909
2021-04-16 20:14:14.977293,atlantes_112.jpg,-51.57413687555181,50.78795478132666,48.15,33.98,31.21,30.08,983.52,358.8,174.92,156.72,-1.7005,-6.9693,-2.8145,-0.002715,0.028892,0.018034,0.302782,0.104056,-0.001229
2021-04-16 20:14:29.977401,atlantes_113.jpg,-51.51881234327471,52.27738681287466,47.62,33.96,31.21,30.63,983.49,331.67,294.07,131.76,-1.3675,-7.1057,-3.3945,-0.004196,0.029135,0.017059,0.297284,0.104056,0.000299
2021-04-16 20:14:44.977521,atlantes_114.jpg,-51.443045054811755,53.76234848561089,48.15,33.85,31.2,30.22,983.49,16.46,91.05,148.21,-1.0944,-6.963,-3.6769,-0.003703,0.032534,0.019008,0.303698,0.104667,0.000909
2021-04-16 20:14:59.977573,atlantes_115.jpg,-51.34694770828426,55.24149083717427,47.62,33.85,31.21,30.49,983.51,341.11,220.82,167.06,-1.1748,-7.0689,-3.8722,-0.005184,0.032049,0.017302,0.301255,0.10314,0.002131
2021-04-16 20:15:14.978040,atlantes_116.jpg,-51.230684228232306,56.71349564105498,47.62,33.89,31.19,30.47,983.52,15.77,34.23,143.69,-0.6976,-7.3418,-5.4114,-0.003703,0.029863,0.017546,0.300949,0.104362,0.001215
2021-04-16 20:15:29.978239,atlantes_117.jpg,-51.09443561466889,58.17709931225658,47.62,33.79,31.2,30.48,983.47,3.03,176.05,191.22,-0.4545,-7.6563,-5.7754,-0.00469,0.029621,0.017059,0.302476,0.103445,0.000909
2021-04-16 20:15:44.978273,atlantes_118.jpg,-50.938417018552876,59.63107583182304,47.62,33.83,31.19,30.49,983.45,330.07,296.16,169.6,-0.6449,-7.9969,-5.798,-0.001728,0.027678,0.01316,0.302476,0.10314,0.000909
2021-04-16 20:15:59.978490,atlantes_119.jpg,-50.76287091159979,61.074267482690054,47.62,33.83,31.19,30.37,983.44,17.12,92.28,189.52,-0.3836,-8.0032,-6.609,-0.002468,0.028892,0.016571,0.301865,0.104362,0.00152
2021-04-16 20:16:14.978532,atlantes_120.jpg,-50.568063671187275,62.50558143459042,48.15,33.91,31.17,30.6,983.46,340.81,222.54,209.42,-0.5815,-8.2052,-6.4718,-0.00469,0.029863,0.017302,0.301255,0.105889,0.00152
2021-04-16 20:16:29.978559,atlantes_121.jpg,-50.35428216526046,63.92399315914862,48.15,33.93,31.18,30.37,983.45,19.17,35.16,188.1,-0.167,-8.3705,-7.9753,-0.003949,0.030835,0.018521,0.303393,0.104362,-0.000312
2021-04-16 20:16:44.978747,atlantes_122.jpg,-50.121843997615755,65.32853959969171,48.15,33.96,31.18,30.27,983.45,4.22,178.48,232.05,-0.0287,-8.636,-8.1885,-0.002468,0.029621,0.016328,0.30156,0.103751,0.001215
2021-04-16 20:16:59.978909,atlantes_123.jpg,-49.87108384752249,66.7183464920059,48.69,33.87,31.17,30.18,983.44,334.61,296.78,206.64,0.1602,-8.3086,-8.1416,-0.002222,0.029863,0.019008,0.30492,0.104056,0.000909
2021-04-16 20:17:14.978990,atlantes_124.jpg,-49.60234322443917,68.09260787376915,47.62,33.98,31.18,30.42,983.47,19.41,93.62,225.98,0.6008,-8.2166,-9.2016,-0.003703,0.030835,0.015353,0.305531,0.102834,0.001826
2021-04-16 20:17:29.979060,atlantes_125.jpg,-49.31599778877014,69.45059974492942,48.15,33.91,31.17,30.65,983.46,341.76,223.81,245.1,1.1573,-8.9384,-9.9244,-0.003456,0.030106,0.01316,0.302782,0.104362,-0.000618
2021-04-16 20:17:44.979243,atlantes_126.jpg,-49.012419785825166,70.79167323751558,47.62,33.81,31.17,30.46,983.45,21.39,34.35,224.48,1.2153,-8.5546,-10.1621,-0.004196,0.029621,0.014378,0.302476,0.103445,0.001215
2021-04-16 20:17:59.979308,atlantes_127.jpg,-48.69200536657611,72.11525461563733,48.15,33.85,31.16,30.6,983.45,6.44,178.56,265.85,0.9282,-9.7792,-10.9432,-0.003456,0.030106,0.019739,0.30156,0.103751,0.002742
2021-04-16 20:18:14.979329,atlantes_128.jpg,-48.35515068199484,73.42085210567444,48.15,33.85,31.16,30.4,983.49,339.25,293.25,240.32,1.8844,-8.8762,-11.4656,-0.001975,0.029863,0.017059,0.299117,0.103751,0.000299
2021-04-16 20:18:29.979372,atlantes_129.jpg,-48.00226554343155,74.70804223589836,47.62,33.89,31.16,30.26,983.45,22.43,91.64,256.82,2.1315,-9.518,-11.6281,-0.001975,0.02865,0.017546,0.304309,0.105278,0.00152
2021-04-16 20:18:44.979528,atlantes_130.jpg,-47.63376317733102,75.97649032703977,47.62,33.91,31.16,30.51,983.44,346.83,223.4,273.79,2.4773,-9.2687,-11.7317,-0.004443,0.029621,0.015353,0.302782,0.104362,0.002742
2021-04-16 20:18:59.979986,atlantes_131.jpg,-47.25006364032721,77.22590268096435,48.15,33.81,31.15,30.43,983.46,19.11,34.98,252.71,3.082,-9.4021,-13.0905,-0.002715,0.031077,0.014622,0.301255,0.105278,0.001826
2021-04-16 20:19:14.980146,atlantes_132.jpg,-46.85158015886491,78.45608122218617,47.62,33.87,31.15,30.45,983.45,4.91,184.54,290.76,2.8011,-9.7313,-12.8733,-0.003456,0.030349,0.017302,0.302171,0.10314,0.000604
2021-04-16 20:19:29.980278,atlantes_133.jpg,-46.438736204672665,79.66686885635434,47.62,33.85,31.15,30.02,983.45,15.42,0.67,259.18,3.4193,-9.8465,-13.7933,-0.005184,0.030349,0.016571,0.302782,0.104972,0.001826
2021-04-16 20:19:44.980283,atlantes_134.jpg,-46.01195183438442,80.85818362119879,47.62,33.93,31.14,30.87,983.42,18.98,154.25,300.31,3.9404,-9.9851,-13.7947,-0.003209,0.029378,0.013647,0.300644,0.104056,0.001215
2021-04-16 20:19:59.980355,atlantes_135.jpg,-45.57164368953954,82.02998453558452,47.62,33.93,31.14,30.47,983.43,344.71,270.12,281.79,4.7587,-10.3523,-15.2385,-0.002222,0.028164,0.014378,0.302782,0.102834,0.00152
2021-04-16 20:20:14.980441,atlantes_136.jpg,-45.11822499658283,83.18229209007903,48.15,33.74,31.14,30.52,983.43,24.54,73.48,283.15,5.0209,-10.4257,-15.0235,-0.004196,0.030349,0.016328,0.30492,0.102834,0.001215
2021-04-16 20:20:29.980509,atlantes_137.jpg,-44.652112397053656,84.31517458657402,48.15,33.93,31.13,30.44,983.43,354.0,210.52,306.11,5.6405,-10.2637,-15.0522,-0.002222,0.028892,0.015109,0.301255,0.103445,0.000299
2021-04-16 20:20:44.980656,atlantes_138.jpg,-44.17370204192387,85.42873447790706,48.69,33.87,31.13,30.29,983.44,14.99,24.75,279.32,5.3323,-9.7801,-15.833,-0.004443,0.029135,0.015597,0.299117,0.1065,0.001215
2021-04-16 20:20:59.980683,atlantes_139.jpg,-43.683400327449085,86.5231356886182,47.62,33.91,31.14,30.68,983.44,6.06,168.97,316.01,6.218,-10.1839,-16.0019,-0.004443,0.030349,0.016328,0.302171,0.102223,0.00152
2021-04-16 20:21:14.980739,atlantes_140.jpg,-43.181593159317416,87.59855580362587,47.62,33.74,31.12,30.41,983.42,339.5,284.97,290.52,7.0761,-10.3466,-15.7327,-0.002468,0.030835,0.015597,0.301255,0.106194,0.00152
2021-04-16 20:21:29.980915,atlantes_141.jpg,-42.66866985831155,88.65520655879436,47.62,33.89,31.11,30.95,983.43,18.61,85.29,298.52,7.7774,-10.8189,-16.0197,-0.002468,0.027921,0.016571,0.304309,0.104972,-7e-06
2021-04-16 20:21:44.980955,atlantes_142.jpg,-42.14500949993043,89.69335433150127,48.15,33.81,31.12,30.01,983.42,346.02,217.46,315.91,7.8326,-10.6914,-16.0133,-0.003703,0.030592,0.013647,0.301865,0.103445,0.000604
2021-04-16 20:21:59.981022,atlantes_143.jpg,-41.61097749929465,90.71325183874592,47.62,33.76,31.13,30.26,983.42,10.87,33.37,290.34,8.4438,-10.4456,-17.0282,-0.002715,0.02865,0.017302,0.303393,0.105583,0.001215
2021-04-16 20:22:14.981149,atlantes_144.jpg,-41.066935856430206,91.71520643904094,48.15,33.91,31.11,30.2,983.42,359.83,172.2,326.5,9.2928,-10.6119,-16.7207,-0.002468,0.030592,0.018521,0.305531,0.105583,0.001215
2021-04-16 20:22:29.981222,atlantes_145.jpg,-40.51323291098478,92.69953915127732,47.62,33.74,31.11,30.37,983.45,336.14,290.13,300.14,9.7728,-9.8078,-16.8995,-0.004196,0.030835,0.015597,0.301865,0.104972,-7e-06
2021-04-16 20:22:44.981372,atlantes_146.jpg,-39.950217002606045,93.66657099434607,47.62,33.95,31.11,30.68,983.4,14.47,88.71,310.0,10.0688,-10.3092,-17.0265,-0.001728,0.031077,0.017059,0.304004,0.105889,0.00152
2021-04-16 20:22:59.981376,atlantes_147.jpg,-39.37821939546874,94.61666396827319,47.62,33.87,31.11,30.83,983.44,342.35,218.82,324.87,10.4993,-10.2177,-17.2311,-0.003703,0.029135,0.017302,0.300949,0.104362,-7e-06
2021-04-16 20:23:14.981473,atlantes_148.jpg,-38.79756452355845,95.55016641270633,48.15,33.87,31.1,30.55,983.4,7.24,36.48,298.86,11.2063,-10.6793,-16.8526,-0.003209,0.030349,0.016084,0.300033,0.103751,0.001826
2021-04-16 20:23:29.981624,atlantes_149.jpg,-38.20856657557698,96.4674471578607,48.69,33.83,31.11,30.95,983.46,355.66,172.5,334.15,11.8353,-10.5544,-16.4808,-0.002468,0.029378,0.014378,0.301255,0.104056,0.00152
2021-04-16 20:23:44.982477,atlantes_150.jpg,-37.61152949494242,97.36889552451899,47.62,33.79,31.1,30.7,983.41,333.09,291.25,308.0,12.0091,-10.9873,-16.7336,-0.004196,0.029378,0.015353,0.301865,0.10711,0.000909
2021-04-16 20:23:59.982502,atlantes_151.jpg,-37.0067572250728,98.25488034289637,48.15,33.85,31.1,30.28,983.44,12.63,88.92,318.17,12.6742,-10.6138,-16.9506,-0.00543,0.030592,0.01584,0.300033,0.1065,0.002437
2021-04-16 20:24:14.982589,atlantes_152.jpg,-36.394529803724126,99.12580459415386,48.15,33.7,31.1,30.57,983.45,340.31,217.95,333.86,13.6309,-11.3355,-17.0308,-0.003209,0.030106,0.013647,0.299422,0.102223,0.00152
2021-04-16 20:24:29.982735,atlantes_153.jpg,-35.77512726865235,99.982050768885,48.69,33.77,31.09,29.82,983.37,5.48,36.63,306.94,14.1504,-10.9931,-16.8533,-0.003209,0.031077,0.014866,0.300033,0.104667,0.000604
2021-04-16 20:24:44.982735,atlantes_154.jpg,-35.148822827424276,100.82400818787247,47.62,33.83,31.09,31.14,983.37,354.49,171.86,342.49,14.8055,-11.0363,-17.1756,-0.002468,0.029621,0.016084,0.305225,0.105889,0.000604
2021-04-16 20:24:59.982758,atlantes_155.jpg,-34.515876027228366,101.65207983227731,48.15,33.72,31.09,30.95,983.39,333.06,291.29,316.34,15.5436,-11.1252,-16.8857,-0.004196,0.031806,0.01316,0.300949,0.104056,0.000604
2021-04-16 20:25:14.982875,atlantes_156.jpg,-33.87653958506391,102.46664819269303,47.62,33.87,31.09,30.64,983.4,12.59,89.18,326.28,15.5145,-11.132,-16.7543,-0.003949,0.029135,0.014378,0.299422,0.102529,-7e-06
2021-04-16 20:25:29.982973,atlantes_157.jpg,-33.23105597264644,103.26811625028067,48.69,33.68,31.09,30.21,983.39,340.73,219.01,341.04,16.1362,-11.2657,-16.7338,-0.003456,0.029135,0.018277,0.302171,0.103445,0.000909
2021-04-16 20:25:44.983082,atlantes_158.jpg,-32.579664246596906,104.05685966544456,47.62,33.85,31.09,30.21,983.38,6.85,36.81,314.76,17.0909,-11.384,-16.4157,-0.002715,0.031563,0.017546,0.301255,0.1065,0.000909
2021-04-16 20:25:59.983197,atlantes_159.jpg,-31.92259321825251,104.8332745891566,48.15,33.77,31.08,30.66,983.4,355.54,173.12,350.22,17.6198,-11.3508,-15.7173,-0.003456,0.029135,0.014378,0.301255,0.104667,0.000909
2021-04-16 20:26:14.983348,atlantes_160.jpg,-31.260061453666687,105.59772985163194,48.15,33.81,31.07,30.68,983.37,333.8,291.9,323.1,18.2754,-11.529,-15.5041,-0.003949,0.029378,0.014866,0.303087,0.10711,0.000604
2021-04-16 20:26:29.983531,atlantes_161.jpg,-30.59228751889288,106.35061477365326,47.62,33.79,31.07,30.68,983.38,13.46,90.24,334.4,19.0322,-11.4485,-15.0457,-0.003456,0.030106,0.016328,0.303698,0.1065,-0.000618
2021-04-16 20:26:44.983641,atlantes_162.jpg,-29.919472904511604,107.09229818543578,47.62,33.87,31.07,30.85,983.39,340.59,219.85,350.1,19.4214,-11.0829,-14.5876,-0.003949,0.029135,0.014866,0.305836,0.104362,0.002437
2021-04-16 20:26:59.983644,atlantes_163.jpg,-29.24182251619796,107.82314891719466,47.62,33.72,31.07,30.56,983.36,7.51,37.54,324.06,19.2643,-11.3602,-14.1148,-0.004196,0.029863,0.01316,0.300644,0.103751,-7e-06
2021-04-16 20:27:14.983822,atlantes_164.jpg,-28.559525891701412,108.5435289689559,47.62,33.81,31.07,30.51,983.41,355.57,173.37,359.08,19.3256,-11.9404,-13.139,-0.003949,0.030835,0.015353,0.302171,0.105583,-0.000312
2021-04-16 20:27:29.983942,atlantes_165.jpg,-27.87277086122414,109.25378668036718,48.15,33.77,31.06,30.44,983.35,333.61,292.03,333.16,20.6885,-11.8962,-12.9976,-0.002962,0.030592,0.016815,0.302171,0.104972,0.000604
2021-04-16 20:27:44.984064,atlantes_166.jpg,-27.181740132326443,109.95428405145452,47.62,33.79,31.06,30.19,983.36,12.94,89.84,343.59,21.6624,-11.7095,-13.0623,-0.002715,0.029621,0.019252,0.302476,0.105889,-0.000312
2021-04-16 20:27:59.984084,atlantes_167.jpg,-26.486606167284855,110.64536259167642,47.62,33.77,31.06,30.51,983.36,341.04,218.77,358.98,22.0693,-12.0703,-12.4334,-0.003209,0.030835,0.019252,0.301255,0.10314,0.001215
2021-04-16 20:28:14.984251,atlantes_168.jpg,-25.787539720828637,111.32735698030218,48.15,33.81,31.06,29.96,983.37,7.01,36.32,332.21,22.6345,-12.1362,-12.0105,-0.003949,0.030592,0.015109,0.300033,0.103751,0.001826
2021-04-16 20:28:29.984251,atlantes_169.jpg,-25.08470471749786,112.00060189660118,48.15,33.66,31.06,30.98,983.37,355.88,172.39,7.59,23.4321,-11.9785,-11.2856,-0.002715,0.029621,0.013403,0.302171,0.104362,0.000299
2021-04-16 20:28:44.984254,atlantes_170.jpg,-24.378259959190736,112.66543201984271,47.62,33.85,31.05,30.84,983.41,333.32,291.24,341.18,23.3066,-11.6057,-11.0562,-0.003209,0.030106,0.016328,0.303087,0.103751,0.001826
2021-04-16 20:28:59.984275,atlantes_171.jpg,-23.668359125163583,113.32216153872861,47.62,33.7,31.05,30.35,983.38,10.97,90.08,350.66,23.9067,-12.0632,-10.24,-0.002715,0.031806,0.016328,0.304004,0.104362,0.00152
2021-04-16 20:29:14.984367,atlantes_172.jpg,-22.95515077203085,113.97110464196068,47.62,33.64,31.04,30.26,983.38,339.16,219.41,6.01,24.3265,-12.0713,-10.0817,-0.001975,0.028407,0.014378,0.300033,0.1065,0.00152
2021-04-16 20:29:29.984411,atlantes_173.jpg,-22.238780041312403,114.61256868805161,47.62,33.74,31.05,30.44,983.39,5.56,37.46,338.84,24.6266,-12.4968,-10.1309,-0.003456,0.027921,0.01779,0.30492,0.103751,0.001215
2021-04-16 20:29:44.984519,atlantes_174.jpg,-21.519386951886226,115.246861035514,47.62,33.76,31.05,30.51,983.37,353.8,172.46,14.72,25.2722,-12.5683,-8.2065,-0.003703,0.029378,0.012672,0.299727,0.10314,-0.000312
2021-04-16 20:29:59.984541,atlantes_175.jpg,-20.797106399988426,115.87428221267137,47.62,33.85,31.05,30.75,983.37,331.93,292.15,348.04,25.7746,-12.3086,-8.0262,-0.002715,0.030835,0.01316,0.302782,0.104972,0.000299
2021-04-16 20:30:14.984613,atlantes_176.jpg,-20.072073281855108,116.49511908746885,47.62,33.74,31.04,30.74,983.37,10.51,90.08,358.32,25.9278,-12.4949,-6.943,-0.003456,0.029863,0.014378,0.303087,0.106805,0.002437
2021-04-16 20:30:29.984661,atlantes_177.jpg,-19.344413955985925,117.10965852785158,47.62,33.76,31.04,30.16,983.36,338.32,219.16,12.56,26.3903,-12.6966,-6.5468,-0.005924,0.031077,0.016571,0.302782,0.101918,0.001215
2021-04-16 20:30:44.984805,atlantes_178.jpg,-18.61425307333322,117.71817374138637,47.62,33.87,31.03,30.91,983.34,5.3,37.73,345.43,26.9939,-12.5714,-6.1701,-0.002468,0.02865,0.014378,0.302171,0.104667,0.002131
2021-04-16 20:30:59.984812,atlantes_179.jpg,-17.881713577302058,118.32096525639666,47.62,33.58,31.04,30.44,983.37,354.41,172.98,20.19,27.6152,-12.6969,-5.4098,-0.002962,0.02865,0.014622,0.302476,0.104972,0.000909
2021-04-16 20:31:14.984823,atlantes_180.jpg,-17.146913288655625,118.91827895969261,47.62,33.68,31.03,30.46,983.34,331.55,291.99,353.13,27.8989,-12.3007,-4.904,-0.003703,0.029621,0.012185,0.304309,0.101918,0.001215
2021-04-16 20:31:29.986762,atlantes_181.jpg,-16.409966613062515,119.51038805884103,48.69,33.76,31.03,30.37,983.35,9.63,90.24,3.4,28.0598,-12.3441,-4.079,-0.003949,0.029621,0.018521,0.297284,0.104056,0.00152
2021-04-16 20:31:44.986764,atlantes_182.jpg,-15.670986248644033,120.09755210103035,48.15,33.77,31.03,30.52,983.34,338.35,219.65,18.39,28.7855,-12.3133,-2.4366,-0.004196,0.028164,0.014378,0.301865,0.105278,0.001826
2021-04-16 20:31:59.986823,atlantes_183.jpg,-14.9300814784269,120.68003063344904,47.62,33.68,31.02,30.52,983.38,5.89,38.4,351.52,28.8745,-13.0567,-1.8564,-0.004443,0.027921,0.015353,0.301865,0.102529,0.000299
2021-04-16 20:32:14.986943,atlantes_184.jpg,-14.187361585437836,121.25808320328555,48.15,33.72,31.02,30.47,983.4,354.29,172.7,28.41,29.2141,-12.8769,-0.7355,-0.003703,0.029863,0.017302,0.299727,0.104667,-0.001534
2021-04-16 20:32:29.986947,atlantes_185.jpg,-13.442929022514392,121.83195569735003,47.62,33.77,31.02,30.55,983.39,332.12,292.19,1.62,29.2853,-12.8084,-1.2263,-0.002468,0.031077,0.014134,0.2982,0.102529,-0.000618
2021-04-16 20:32:44.986949,atlantes_186.jpg,-12.696887096267762,122.40189400245256,47.62,33.7,31.02,30.61,983.39,10.51,90.02,12.01,29.9543,-13.1072,0.0514,-0.003456,0.029621,0.018277,0.300949,0.104972,0.002131
2021-04-16 20:32:59.987093,atlantes_187.jpg,-11.949336551988207,122.96813034502496,48.69,33.7,31.01,30.37,983.4,338.26,218.47,27.3,30.425,-12.8261,0.2508,-0.002715,0.029621,0.016328,0.30156,0.103445,0.002131
2021-04-16 20:33:14.987142,atlantes_188.jpg,-11.200375573645044,123.53089695149899,48.15,33.7,31.01,30.57,983.36,4.11,37.83,0.1,30.8422,-12.6114,1.7115,-0.002468,0.028164,0.014866,0.300338,0.10314,-0.000312
2021-04-16 20:33:29.987241,atlantes_189.jpg,-10.450099783886653,124.09045336906311,48.69,33.76,31.01,30.58,983.37,353.65,172.42,35.39,30.9593,-12.8664,2.9743,-0.004937,0.030106,0.019983,0.303698,0.104056,0.001215
2021-04-16 20:33:44.987318,atlantes_190.jpg,-9.69860565913506,124.64701816377078,48.15,33.66,31.02,29.85,983.38,332.04,291.53,9.48,30.8694,-12.6226,3.6102,-0.00469,0.030106,0.019496,0.298506,0.10314,0.002437
2021-04-16 20:33:59.987441,atlantes_191.jpg,-8.945985406944063,125.20082356205376,48.69,33.72,31.01,30.68,983.37,10.26,89.11,19.54,30.9566,-12.8183,4.4627,-0.002715,0.03302,0.017059,0.300949,0.105278,0.002437
2021-04-16 20:34:14.987570,atlantes_192.jpg,-8.192332088641102,125.75208812996547,48.69,33.6,31.01,30.67,983.39,338.84,218.07,35.23,30.8712,-12.8445,4.9132,-0.003209,0.030106,0.016084,0.300644,0.102529,0.002131
2021-04-16 20:34:29.987590,atlantes_193.jpg,-7.437734496685385,126.3010304335594,48.69,33.76,31.01,30.42,983.37,4.9,36.72,7.25,31.3699,-12.7882,5.9378,-0.004196,0.028407,0.018521,0.299422,0.104667,0.000299
2021-04-16 20:34:44.987625,atlantes_194.jpg,-6.682283557970241,126.84789635964565,48.69,33.74,31.01,30.45,983.36,354.31,171.36,43.94,31.5406,-13.108,6.4631,-0.005677,0.028892,0.015353,0.303087,0.103751,0.001215
2021-04-16 20:34:59.988269,atlantes_195.jpg,-5.926066784294408,127.3928908138993,48.69,33.68,31.01,30.79,983.37,333.12,290.83,17.06,31.2831,-13.241,6.9497,-0.003209,0.029378,0.01779,0.303393,0.102223,0.001826
2021-04-16 20:35:14.988393,atlantes_196.jpg,-5.169171687456629,127.93621870199547,48.69,33.62,31.01,30.66,983.35,10.76,89.47,26.36,31.7658,-12.7965,8.1443,-0.003456,0.032777,0.014134,0.299727,0.102834,0.001826
2021-04-16 20:35:29.988520,atlantes_197.jpg,-4.411685352368821,128.4781259107443,48.69,33.7,31.01,30.96,983.39,339.99,219.12,40.63,31.4963,-13.106,9.4372,-0.002468,0.030835,0.012185,0.300033,0.104056,0.002131
2021-04-16 20:35:44.988677,atlantes_198.jpg,-3.6536927295087844,129.0188036854425,48.69,33.74,31.02,30.68,983.37,5.51,37.59,14.21,31.3007,-12.3267,10.7358,-0.005184,0.028164,0.014134,0.303393,0.107721,0.00152
2021-04-16 20:35:59.989501,atlantes_199.jpg,-2.8952789827977354,129.55847059214355,48.69,33.74,31.01,30.62,983.37,354.03,172.22,49.5,32.6081,-12.8603,11.2416,-0.002222,0.031563,0.014134,0.300949,0.104667,0.001215
2021-04-16 20:36:14.991504,atlantes_200.jpg,-2.136529276156886,130.0973588572792,49.23,33.83,31.01,30.6,983.37,332.45,291.64,21.89,32.3955,-12.7989,11.2863,-0.003209,0.029621,0.018521,0.30156,0.102834,0.002131
2021-04-16 20:36:29.991542,atlantes_201.jpg,-1.3775273861252753,130.63564606576793,48.69,33.7,31.01,30.68,983.39,11.31,89.2,31.83,32.1497,-13.0026,12.558,-0.003456,0.030349,0.015597,0.301865,0.103751,-7e-06
2021-04-16 20:36:44.991724,atlantes_202.jpg,-0.6183575161287643,131.1735781044198,48.69,33.74,31.01,30.38,983.35,339.32,218.14,47.13,32.1289,-13.1647,13.7767,-0.004443,0.029863,0.014378,0.303698,0.104972,0.000604
2021-04-16 20:36:59.991859,atlantes_203.jpg,0.14089697084021793,131.71134621853156,48.15,33.64,31.01,30.55,983.36,3.66,37.36,19.5,32.5937,-12.9795,14.961,-0.004196,0.030106,0.019252,0.302782,0.104362,0.000299
2021-04-16 20:37:14.991948,atlantes_204.jpg,0.9001516979330383,132.2491689741567,48.69,33.74,31.02,30.77,983.37,352.96,170.45,55.51,32.3657,-12.7792,15.3148,-0.003456,0.030106,0.018277,0.297589,0.103751,0.00152
2021-04-16 20:37:29.992032,atlantes_205.jpg,1.659323488920253,132.78723761659197,48.69,33.68,31.02,30.06,983.36,331.83,290.11,28.81,32.5849,-13.1954,16.664,-0.002715,0.032049,0.015109,0.300644,0.104362,0.00152
2021-04-16 20:37:44.992093,atlantes_206.jpg,2.4183281537162142,133.32579803264747,48.69,33.77,31.01,30.62,983.37,9.9,88.71,37.07,32.6038,-13.0612,17.365,-0.004196,0.029621,0.016571,0.304309,0.103445,0.002131
2021-04-16 20:37:59.992195,atlantes_207.jpg,3.1770817023384716,133.86504146762,48.69,33.74,31.02,30.75,983.33,339.38,217.31,52.07,32.4638,-12.4854,18.5524,-0.002468,0.027678,0.012429,0.300644,0.104972,0.00152
2021-04-16 20:38:14.992202,atlantes_208.jpg,3.935499931361164,134.40518648756293,48.69,33.74,31.02,31.12,983.31,4.47,36.64,24.05,32.501,-12.8494,18.8386,-0.003456,0.027921,0.014622,0.299727,0.103445,-7e-06
2021-04-16 20:38:29.992335,atlantes_209.jpg,4.693497249976254,134.94643799815142,48.69,33.68,31.02,30.3,983.32,353.53,171.09,58.48,32.3937,-12.7089,19.7145,-0.003456,0.029863,0.015353,0.302476,0.104056,-7e-06
2021-04-16 20:38:44.992340,atlantes_210.jpg,5.45098870770594,135.48902822581724,48.69,33.6,31.01,30.57,983.32,331.61,291.07,31.98,32.3057,-13.1253,20.7456,-0.00469,0.030349,0.01584,0.304309,0.105583,0.002131
2021-04-16 20:38:59.992450,atlantes_211.jpg,6.20788807341195,136.03314841585714,48.69,33.74,31.02,30.33,983.29,10.72,88.77,40.99,32.5025,-12.7885,22.2117,-0.003209,0.02865,0.016084,0.298506,0.104972,0.002437
2021-04-16 20:39:14.992604,atlantes_212.jpg,6.964107835295545,136.5790307947029,48.15,33.89,31.03,30.75,983.34,339.97,217.98,56.34,32.4105,-12.7926,22.1762,-0.002715,0.028164,0.01779,0.303393,0.104056,0.002742
2021-04-16 20:39:29.992639,atlantes_213.jpg,7.719560054671159,137.12689392840795,48.69,33.77,31.02,30.8,983.32,4.02,36.76,28.77,32.6664,-12.711,23.5234,-0.001728,0.029135,0.015109,0.303393,0.105278,-0.000312
2021-04-16 20:39:44.992819,atlantes_214.jpg,8.474156792853229,137.6769700434041,48.15,33.72,31.02,31.0,983.31,353.67,171.13,63.4,32.6807,-12.5195,24.2691,-0.004196,0.030349,0.017059,0.300338,0.104056,0.000909
2021-04-16 20:39:59.992822,atlantes_215.jpg,9.227806696061606,138.2294503849881,48.69,33.62,31.02,30.75,983.33,332.5,291.03,36.1,32.1311,-12.5554,25.3411,-0.006171,0.03132,0.016084,0.303393,0.104667,-7e-06
2021-04-16 20:40:14.992908,atlantes_216.jpg,9.980419264289786,138.7845945003484,47.62,33.72,31.02,30.55,983.35,11.17,89.12,45.66,32.0574,-12.1881,25.3541,-0.003209,0.031077,0.01779,0.304614,0.101307,-7e-06
2021-04-16 20:40:29.993014,atlantes_217.jpg,10.731900582436685,139.3426072951601,48.69,33.76,31.02,30.76,983.31,339.93,218.51,59.63,32.5238,-12.991,27.0486,-0.003456,0.030592,0.014866,0.300949,0.104972,0.000299
2021-04-16 20:40:44.993077,atlantes_218.jpg,11.482156735401212,139.90373465623333,48.15,33.66,31.02,30.64,983.36,5.27,36.92,31.88,32.1448,-12.5064,27.2677,-0.003209,0.03132,0.019252,0.300338,0.107416,0.00152
2021-04-16 20:40:59.993219,atlantes_219.jpg,12.231092954308634,140.46820880999985,48.69,33.72,31.01,30.76,983.37,355.13,171.66,66.47,31.9411,-12.2343,27.4713,-0.00469,0.029621,0.017059,0.299117,0.106194,0.001215
2021-04-16 20:41:14.993377,atlantes_220.jpg,12.978609347642339,141.03624832251313,48.15,33.66,31.02,30.77,983.33,333.87,290.43,39.69,32.2845,-12.3642,28.8156,-0.003703,0.028407,0.018521,0.300033,0.104972,-0.000923
2021-04-16 20:41:29.993521,atlantes_221.jpg,13.724607731433009,141.60811274096162,48.69,33.74,31.01,30.92,983.37,11.26,89.11,48.14,31.951,-12.6924,29.1022,-0.002962,0.030106,0.014866,0.305531,0.104667,-0.001229
2021-04-16 20:41:44.993592,atlantes_222.jpg,14.468985652843093,142.1840342917771,47.62,33.74,31.01,30.68,983.32,339.06,217.81,63.58,32.0011,-12.1137,30.7838,-0.004196,0.029863,0.017302,0.302171,0.102834,0.000604
2021-04-16 20:41:59.993757,atlantes_223.jpg,15.211640659035043,142.7642588617697,48.15,33.76,31.01,30.78,983.34,4.08,37.16,34.94,31.1227,-11.817,30.7636,-0.00469,0.030106,0.016084,0.302476,0.103445,-7e-06
2021-04-16 20:42:14.993809,atlantes_224.jpg,15.952465174529427,143.34905965850618,48.69,33.66,31.01,30.8,983.34,353.21,170.89,70.59,31.3429,-12.2316,31.7169,-0.004196,0.029135,0.012429,0.302782,0.104056,0.000604
2021-04-16 20:42:29.993826,atlantes_225.jpg,16.69134820875224,143.93866890841835,47.62,33.68,31.01,30.84,983.32,331.35,290.56,43.53,31.3824,-11.8622,32.5478,-0.003209,0.029621,0.01316,0.301865,0.10314,0.000909
2021-04-16 20:42:44.993867,atlantes_226.jpg,17.428182186224042,144.53334615869468,48.69,33.76,31.01,30.66,983.3,9.47,88.58,52.82,30.9389,-12.0984,33.5662,-0.002715,0.028407,0.015597,0.302782,0.103751,0.00152
2021-04-16 20:42:59.993902,atlantes_227.jpg,18.162852701276247,145.1333782772803,48.69,33.72,31.0,30.64,983.32,338.79,217.64,68.06,30.979,-12.1555,33.5565,-0.002715,0.030349,0.016084,0.304004,0.102223,0.002131
2021-04-16 20:43:14.994084,atlantes_228.jpg,18.89523851805108,145.73901115098533,48.69,33.72,31.01,30.53,983.31,2.25,37.66,40.18,30.7543,-11.8475,34.5928,-0.004443,0.030349,0.014378,0.30156,0.104972,0.00152
2021-04-16 20:43:29.994102,atlantes_229.jpg,19.625223523332657,146.3505316477549,48.69,33.66,31.01,30.51,983.34,351.8,171.47,75.5,30.4643,-12.4726,34.8389,-0.002715,0.029863,0.016571,0.302171,0.1065,0.001826
2021-04-16 20:43:44.994121,atlantes_230.jpg,20.35268135862133,146.96821297515584,48.69,33.74,31.0,30.52,983.36,331.14,291.35,48.33,30.1629,-12.0188,35.544,-0.001975,0.029621,0.016815,0.301865,0.105583,0.001826
2021-04-16 20:43:59.994265,atlantes_231.jpg,21.07748737296474,147.59234200113326,48.15,33.79,31.01,30.61,983.34,9.19,89.38,56.77,29.753,-12.0883,36.2004,-0.002962,0.029863,0.015109,0.300644,0.103445,0.000909
2021-04-16 20:44:14.994346,atlantes_232.jpg,21.79950837767408,148.22321925401067,48.15,33.55,31.01,30.6,983.37,338.37,218.26,71.87,29.5628,-11.9635,37.5571,-0.003703,0.029863,0.018034,0.303698,0.106805,0.00152
2021-04-16 20:44:29.994517,atlantes_233.jpg,22.518611184060532,148.86111794135485,48.15,33.76,31.01,30.29,983.38,2.29,38.64,43.65,29.3794,-11.6133,38.2391,-0.003209,0.029863,0.015353,0.302171,0.105889,0.002131
2021-04-16 20:44:44.994864,atlantes_234.jpg,23.234655773246114,149.5063522518676,48.69,33.62,31.01,30.44,983.37,352.14,171.49,78.91,29.5774,-11.525,38.7076,-0.003703,0.029135,0.017302,0.30156,0.1065,0.000909
2021-04-16 20:44:59.994872,atlantes_235.jpg,23.94750041880554,150.15922271387245,48.69,33.74,31.01,30.39,983.39,332.39,291.78,51.63,29.4527,-11.5071,38.7301,-0.00469,0.030835,0.017546,0.30156,0.103445,0.000604
2021-04-16 20:45:14.994958,atlantes_236.jpg,24.65699656412437,150.82005717644952,48.69,33.62,31.0,30.48,983.44,9.81,89.51,60.18,29.0144,-11.0298,39.0942,-0.003949,0.030592,0.017302,0.300949,0.103751,-7e-06
2021-04-16 20:45:29.995095,atlantes_237.jpg,25.362992237493568,151.48916982830065,48.15,33.76,31.0,30.88,983.4,338.76,218.23,74.62,28.5228,-11.2137,39.6839,-0.003209,0.029135,0.019252,0.302782,0.104667,0.001215
2021-04-16 20:45:44.995299,atlantes_238.jpg,26.065332052109518,152.16687485812764,48.15,33.62,31.0,30.52,983.43,2.79,37.42,45.97,28.9775,-11.6719,41.1061,-0.003456,0.02865,0.017302,0.299422,0.106194,0.000604
2021-04-16 20:45:59.995419,atlantes_239.jpg,26.763852083432138,152.8535001150107,48.15,33.77,31.0,30.55,983.4,352.82,171.09,80.44,28.2803,-11.3918,41.0255,-0.003209,0.028407,0.01584,0.303087,0.105889,0.001215
2021-04-16 20:46:14.995458,atlantes_240.jpg,27.45838499182676,153.54941442916495,48.69,33.83,31.0,30.75,983.43,331.63,290.76,53.22,28.0196,-11.3694,41.6853,-0.002962,0.029135,0.014378,0.303087,0.103445,0.000604
2021-04-16 20:46:29.995461,atlantes_241.jpg,28.148758315016845,154.2549183289139,48.69,33.66,31.01,30.94,983.45,9.39,88.89,61.6,27.9891,-11.3718,41.9207,-0.004196,0.028164,0.015353,0.301865,0.104667,0.000299
2021-04-16 20:46:44.995483,atlantes_242.jpg,28.834794468083974,154.97039430485108,48.69,33.77,31.0,30.7,983.47,337.95,217.25,76.72,27.8974,-11.5845,43.0459,-0.002962,0.029863,0.014622,0.300949,0.104667,0.001215
2021-04-16 20:46:59.995609,atlantes_243.jpg,29.516303913278676,155.69618386643498,48.69,33.66,31.01,30.71,983.48,1.5,37.92,47.65,27.1185,-11.1583,43.832,-0.002715,0.030106,0.016571,0.304309,0.104667,0.001215
2021-04-16 20:47:14.995627,atlantes_244.jpg,30.193100527946072,156.43265584388078,48.69,33.79,31.0,30.59,983.45,351.35,178.09,81.92,26.99,-10.1862,44.4384,-0.003456,0.029621,0.017546,0.302171,0.106194,0.001215
2021-04-16 20:47:29.995638,atlantes_245.jpg,30.864982821505638,157.18017906740366,48.15,33.7,31.0,31.24,983.47,353.24,7.5,43.54,27.1811,-10.602,45.0975,-0.004196,0.028892,0.01584,0.299422,0.105583,0.000909
2021-04-16 20:47:44.995685,atlantes_246.jpg,31.53174930337687,157.93910870684044,48.15,33.64,31.01,30.88,983.44,0.3,147.35,79.2,26.5714,-10.9175,45.0586,-0.001975,0.029621,0.016571,0.299117,0.105278,0.001826
2021-04-16 20:47:59.995784,atlantes_247.jpg,32.19318823769549,158.7098272527847,48.15,33.66,31.0,30.73,983.49,330.6,269.01,61.58,26.9168,-10.3981,45.5439,-0.00469,0.032049,0.014866,0.303698,0.10711,0.000909
2021-04-16 20:48:14.995945,atlantes_248.jpg,32.84908105840806,159.49273085620823,48.15,33.74,31.01,30.73,983.46,9.03,73.87,58.7,26.3665,-10.0031,45.7508,-0.004196,0.031563,0.017546,0.299117,0.102834,-7e-06
2021-04-16 20:48:29.995945,atlantes_249.jpg,33.49919895417738,160.2882020077046,48.15,33.7,31.01,30.84,983.48,342.87,207.02,80.12,25.7937,-10.5375,46.1113,-0.003703,0.03132,0.017059,0.301865,0.106194,0.000604
2021-04-16 20:48:44.996002,atlantes_250.jpg,34.143306283477095,161.09660953748897,48.69,33.77,31.01,30.79,983.46,1.78,28.75,48.3,25.9146,-10.5882,46.7961,-0.003456,0.027193,0.01584,0.30156,0.103445,0.000909
2021-04-16 20:48:59.996037,atlantes_251.jpg,34.78116740478083,161.91837691728986,48.15,33.51,31.01,30.71,983.46,356.06,165.41,84.09,25.9906,-10.1844,47.4236,-0.002222,0.028892,0.01584,0.307669,0.105278,0.000604
2021-04-16 20:49:14.997981,atlantes_252.jpg,35.4125296010893,162.75387297732252,47.62,33.83,31.01,30.54,983.48,331.83,285.53,59.26,25.518,-10.6178,48.7645,-0.006171,0.030349,0.016084,0.303087,0.106805,0.000909
2021-04-16 20:49:29.998097,atlantes_253.jpg,36.037129910119454,163.6035075289371,48.15,33.74,31.02,30.79,983.48,9.76,85.4,65.09,25.0493,-10.7745,48.4158,-0.003703,0.029863,0.016328,0.30492,0.105278,-0.000312
2021-04-16 20:49:44.998272,atlantes_254.jpg,36.65470878468284,164.4676630627271,48.69,33.72,31.02,30.67,983.48,339.56,215.25,81.58,25.1425,-11.0569,49.0409,-0.003703,0.029863,0.017302,0.303698,0.104362,-0.000618
2021-04-16 20:49:59.999009,atlantes_255.jpg,37.26498277192889,165.34674939004276,48.15,33.7,31.02,30.87,983.44,2.29,36.07,52.42,24.5622,-11.0749,49.4562,-0.003209,0.029863,0.014622,0.302171,0.105278,0.000299
2021-04-16 20:50:14.999066,atlantes_256.jpg,37.86767183410165,166.24116266185592,48.69,33.6,31.02,30.34,983.46,352.62,170.04,87.51,24.8554,-10.5932,49.6456,-0.004196,0.031563,0.017302,0.300644,0.105278,0.000299
2021-04-16 20:50:29.999069,atlantes_257.jpg,38.46247885797221,167.15127170838178,48.15,33.72,31.03,31.09,983.46,331.25,290.31,61.37,24.6744,-10.8582,49.7802,-0.003209,0.030106,0.014378,0.301255,0.104362,-0.001534
2021-04-16 20:50:44.999096,atlantes_258.jpg,39.049099900122506,168.0774726805922,48.15,33.79,31.03,30.51,983.47,9.57,88.82,68.98,24.8892,-9.9692,50.739,-0.002222,0.029863,0.016328,0.304614,0.106194,-0.000312
2021-04-16 20:50:59.999097,atlantes_259.jpg,39.627227602039895,169.02014806908068,48.69,33.7,31.03,30.46,983.47,338.17,217.49,83.75,23.6598,-10.3253,51.3314,-0.002468,0.029863,0.016084,0.297895,0.103751,-0.000312
2021-04-16 20:51:14.999277,atlantes_260.jpg,40.196534114644216,169.9796667040624,48.69,33.76,31.04,30.66,983.44,1.79,37.88,55.3,23.475,-9.7121,50.6723,-0.002468,0.032049,0.018521,0.300644,0.104667,-0.000312
2021-04-16 20:51:29.999440,atlantes_261.jpg,40.756691588855304,170.9563700949959,48.69,33.7,31.03,30.64,983.4,351.65,178.02,89.72,23.428,-10.1873,51.3976,-0.004443,0.03132,0.015353,0.303698,0.104362,0.000604
2021-04-16 20:51:44.999730,atlantes_262.jpg,41.30735510012007,171.95061341171797,48.69,33.74,31.04,30.38,983.41,353.17,7.94,51.49,23.322,-10.3551,51.8029,-0.00543,0.029378,0.014134,0.304004,0.107416,0.000909
2021-04-16 20:52:00.000014,atlantes_263.jpg,41.84817972388544,172.96273816368713,48.15,33.74,31.05,30.79,983.42,0.25,147.71,87.45,23.3343,-10.4388,51.8497,-0.002962,0.030349,0.013647,0.303698,0.105278,-0.000312
2021-04-16 20:52:15.000181,atlantes_264.jpg,42.37880687521997,173.99303121884853,47.62,33.81,31.05,30.82,983.43,331.4,269.34,70.8,23.0468,-10.0372,52.6988,-0.002468,0.029621,0.017302,0.302476,0.104667,0.002437
2021-04-16 20:52:30.000188,atlantes_265.jpg,42.89886430881391,175.04179310552564,48.15,33.83,31.06,30.68,983.44,8.22,74.27,66.95,22.94,-9.9112,54.0009,-0.003456,0.030835,0.017546,0.302171,0.104972,0.000604
2021-04-16 20:52:45.000355,atlantes_266.jpg,43.40797636426291,176.10929703128528,48.69,33.79,31.06,30.73,983.46,341.02,205.72,89.02,22.2435,-9.6334,53.7015,-0.003703,0.030592,0.014866,0.303393,0.104056,0.000604
2021-04-16 20:53:00.000640,atlantes_267.jpg,43.90576396606802,177.19576156218088,48.69,33.89,31.07,30.91,983.45,358.7,29.85,55.93,21.8902,-9.6222,52.8735,-0.004196,0.030835,0.01584,0.302476,0.107416,0.001215
2021-04-16 20:53:15.000652,atlantes_268.jpg,44.39182754816281,178.30140526426587,48.15,33.74,31.07,30.79,983.46,353.22,165.06,92.4,22.0058,-9.8557,53.9202,-0.002468,0.030106,0.017546,0.302782,0.105889,0.000604
2021-04-16 20:53:30.000815,atlantes_269.jpg,44.86577437466999,179.42640572245867,48.15,33.68,31.08,31.46,983.46,330.96,285.37,67.42,22.1749,-9.2742,54.6116,-0.001975,0.031806,0.016571,0.304614,0.103445,0.000909
2021-04-16 20:53:45.000990,atlantes_270.jpg,45.327194634239376,-179.42912413774832,48.69,33.68,31.07,30.78,983.46,8.84,85.14,72.62,21.8135,-9.3106,54.8078,-0.003949,0.029378,0.014134,0.301255,0.105583,0.002131
2021-04-16 20:54:00.001119,atlantes_271.jpg,45.77567851552075,-178.2650686578814,48.15,33.85,31.08,30.94,983.51,338.81,214.97,89.25,21.5563,-9.3142,55.2691,-0.003703,0.030592,0.015353,0.302782,0.105583,0.000909
2021-04-16 20:54:15.001132,atlantes_272.jpg,46.21080937697475,-177.08141053509652,48.69,33.77,31.09,30.9,983.48,1.15,36.4,59.21,21.442,-10.0766,55.1413,-0.003209,0.02865,0.017546,0.30492,0.105278,-0.000312
2021-04-16 20:54:30.001183,atlantes_273.jpg,46.63216716196742,-175.87812244863704,48.69,33.93,31.09,31.55,983.48,351.89,176.81,93.31,21.1288,-9.5862,56.1144,-0.003703,0.029621,0.018277,0.302782,0.103751,0.000604
2021-04-16 20:54:45.001263,atlantes_274.jpg,47.03933181386481,-174.65528636077298,48.69,33.76,31.1,30.79,983.51,352.25,6.63,54.76,20.7686,-9.3094,56.067,-0.003949,0.03132,0.01584,0.300033,0.105583,0.002131
2021-04-16 20:55:00.001287,atlantes_275.jpg,47.431876445843784,-173.4130252149094,48.69,33.85,31.1,30.84,983.47,0.23,146.64,90.21,20.781,-9.4114,55.9095,-0.004937,0.02865,0.019008,0.30156,0.105889,-0.000312
2021-04-16 20:55:15.001332,atlantes_276.jpg,47.8093775861758,-172.15148927520804,48.69,33.79,31.11,30.82,983.48,330.74,267.62,73.27,20.642,-9.0964,56.8654,-0.001975,0.029135,0.017059,0.303393,0.105278,0.00152
2021-04-16 20:55:30.001995,atlantes_277.jpg,48.171415178226916,-170.87093808885737,48.69,33.85,31.11,30.86,983.47,8.87,72.46,68.64,20.2965,-9.3731,57.0951,-0.002962,0.029135,0.018521,0.299422,0.104362,0.001215
2021-04-16 20:55:45.002077,atlantes_278.jpg,48.517565750268574,-169.57169950493756,47.62,33.81,31.11,30.77,983.48,343.27,204.9,90.73,19.8532,-9.3528,57.7194,-0.002468,0.028892,0.01584,0.303698,0.105583,0.001826
2021-04-16 20:56:00.002200,atlantes_279.jpg,48.847416075856,-168.2541286932854,48.69,33.93,31.12,30.79,983.45,0.7,27.21,58.12,19.7297,-9.0308,57.8519,-0.003949,0.03132,0.014622,0.302476,0.105278,0.00152
2021-04-16 20:56:15.002240,atlantes_280.jpg,49.16055975873358,-166.9187174275212,48.15,33.76,31.12,30.74,983.47,355.77,164.21,94.43,19.8825,-9.8476,57.7437,-0.003456,0.030349,0.016815,0.302171,0.103751,0.002131
2021-04-16 20:56:30.002307,atlantes_281.jpg,49.45659723283485,-165.56597114164347,48.69,33.93,31.13,31.03,983.39,332.53,285.04,69.74,19.706,-9.6905,58.8018,-0.003703,0.030835,0.015109,0.301865,0.104056,0.000604
2021-04-16 20:56:45.002472,atlantes_282.jpg,49.73513576228256,-164.1965045526776,48.69,33.79,31.13,30.77,983.42,10.54,85.05,74.79,19.7011,-9.0413,58.4902,-0.002715,0.033505,0.017546,0.303698,0.105889,-7e-06
2021-04-16 20:57:00.002629,atlantes_283.jpg,49.995803101766924,-162.81102800029717,48.69,33.93,31.14,31.04,983.42,340.82,215.17,91.01,19.182,-9.168,58.9123,-0.003703,0.030106,0.014134,0.306447,0.103445,0.002437
