Counter,Date/time,Latitude,Longitude,Elevation,Temperature,Humidity,Pressure,Compass,Orient_pitch,Orient_roll,Orient_yaw,Comp_x,Comp_y,Comp_z,gyro_pitch,gyro_roll,gyro_yaw,gyro_x,gyro_y,gyro_z,accel_pitch,accel_roll,accel_yaw,accel_x,accel_y,accel_z
1,2022-04-15 18:11:02.915708,-38.369007077926575,130.60545359684227,428.2404704085957,35.2403,28.7927,1017.9524,46.8763,0.0,0.0,46.87634642479538,12.168203353881836,-12.992469787597656,-3.673616409301758,0.001883745037189192,359.99967605126466,46.8751579718798,0.001330208033323288,3.97413969039917e-05,-0.0005261003971099854,359.45651747215214,1.2473708744146892,47.20711882592076,0.018543999642133713,0.030499998480081558,0.016103999689221382
2,2022-04-15 18:11:08.146348,-38.16126667181903,130.92155484697568,428.1377940605844,35.3292,29.0406,1017.936,47.4833,358.9526933705029,2.4369534392526044,47.473639637523824,21.87900733947754,-24.03754425048828,-6.645096778869629,358.95517443671895,2.4365963484250597,47.465849806775424,0.001526113599538803,0.0005473718047142029,0.0010472051799297333,358.4347147690159,3.525024345263615,47.7368785432307,0.019763998687267303,0.031964000314474106,0.014883999712765217
3,2022-04-15 18:11:13.385580,-37.95211166710551,131.23640472769242,428.0345789951362,35.2225,28.8478,1017.9692,47.9904,357.93217303538336,4.720881612792951,47.95263397382765,24.479040145874023,-26.41861343383789,-7.0141496658325195,357.93306309440953,4.721832289748052,47.91526259378393,0.004652172327041626,0.0006960704922676086,-0.001588897779583931,357.4040845799859,5.782297705567987,48.18004512224323,0.020983999595046043,0.033427998423576355,0.016103999689221382
4,2022-04-15 18:11:18.629966,-37.74177878300808,131.5496664758775,427.9309468597126,35.2759,28.8295,1017.9668,48.3915,356.9114038252459,6.916508246969726,48.336903831627154,24.990995407104492,-27.13557243347168,-7.104789733886719,356.91382341975935,6.918026683399584,48.283566884398525,0.0016753971576690674,0.0020189136266708374,0.00028133392333984375,356.4671160279924,8.097748482788411,48.54118454441848,0.02025200054049492,0.031231999397277832,0.014151999726891518
5,2022-04-15 18:11:23.870421,-37.530648058855846,131.86080781873483,427.8270891577423,35.3292,28.7591,1018.0076,48.7317,355.9703493260248,9.208503727693504,48.657335326349134,24.815650939941406,-27.188926696777344,-7.582900524139404,355.97235910918806,9.212980062920801,48.58414643429786,0.0012376606464385986,0.00216645747423172,0.00035055726766586304,355.47240548364243,10.304130103587017,48.85017888737527,0.020739998668432236,0.028547998517751694,0.01512799970805645
6,2022-04-15 18:11:29.103490,-37.31887786427207,132.16964069250017,427.723087535467,35.2225,28.8264,1017.9797,49.0059,354.94599213213894,11.297199481545498,48.91359719381884,24.58372688293457,-27.001190185546875,-7.30401611328125,354.94754045064644,11.295580726712204,48.82462373459567,0.0021316297352313995,0.0017208009958267212,0.0020918771624565125,354.4718297277861,12.278268217132265,49.05076446782562,0.02000799961388111,0.03147599846124649,0.014883999712765217
7,2022-04-15 18:11:34.342675,-37.10592699646015,132.47698981373824,427.6186805352525,35.2936,28.7683,1017.9727,49.1566,354.0174262069284,13.288225237813602,49.04474707116684,24.43434715270996,-26.980195999145508,-7.735297203063965,354.02089551614,13.29017781814258,48.93614364826905,0.0029098764061927795,0.0015605464577674866,3.2436102628707886e-05,353.60127003787557,14.405499044507826,49.164456381655064,0.02025200054049492,0.03171999752521515,0.019519999623298645
8,2022-04-15 18:11:39.584766,-36.89193464715887,132.78267986802496,427.51394136006894,35.2047,29.6372,1017.9883,49.2099,353.17936541086243,15.254725492319483,49.09757175420772,24.023120880126953,-26.828662872314453,-6.496589660644531,353.18248339221856,15.252643992169922,48.987824274623954,0.002278350293636322,0.0026093199849128723,0.0009139981120824814,352.7263906802018,16.162169057521744,49.18823227015588,0.020739998668432236,0.03147599846124649,0.017079999670386314
9,2022-04-15 18:11:44.827351,-36.67701294794674,133.08658119248386,427.40892967850607,35.2581,28.8325,1017.99,49.2355,352.29315178114786,17.03366533712223,49.109036226729586,23.904499053955078,-26.88668441772461,-6.300178050994873,352.29491396995377,17.035429233475384,48.98544053860362,-0.0016874372959136963,-0.0004820972681045532,4.3585896492004395e-07,351.8815628742156,17.960322224459738,49.1676836460379,0.01903199963271618,0.031964000314474106,0.013907999731600285
10,2022-04-15 18:11:50.062100,-36.46152317000779,133.38822283028787,427.30382631566897,35.2047,28.8233,1017.9863,49.19,351.4947854832171,18.895274376544226,49.04515688251704,23.643569946289062,-26.879179000854492,-7.095522403717041,351.49695065318394,18.894109829290738,48.90430472145304,0.0018473006784915924,7.839500904083252e-05,-0.0008424241095781326,351.1110739933822,19.726173719265446,49.05431616619403,0.01878799870610237,0.03245199844241142,0.01439599972218275
11,2022-04-15 18:11:55.298493,-36.24507672049257,133.68818705659632,427.1984461978571,35.2759,28.8998,1017.9622,49.0397,350.75092665618394,20.620424774085826,48.87577843638448,23.422101974487305,-26.546133041381836,-7.406210422515869,350.751411599615,20.618356934314605,48.716611123061085,-0.0005889870226383209,0.0010014921426773071,-0.00025495514273643494,350.39488767777135,21.49777964844689,48.86631179419484,0.018055999651551247,0.032207999378442764,0.01268799975514412
12,2022-04-15 18:12:00.531776,-36.02789158990856,133.98620554133774,427.09290025533323,35.3292,28.8356,1017.9604,48.8293,350.05533165337334,22.40503879854156,48.648531212508985,23.13519287109375,-26.101024627685547,-7.610276222229004,350.05530091752206,22.40226061909666,48.46548214275264,0.0014401152729988098,0.0015574023127555847,-0.00023757293820381165,349.70091228356773,23.16069506981863,48.592479265085274,0.018543999642133713,0.03171999752521515,0.018055999651551247
13,2022-04-15 18:12:05.771081,-35.809596078188584,134.28281823969095,426.9870129835099,35.1692,28.9733,1018.0134,48.4875,349.37934526989625,23.879620291286663,48.277931978333264,22.977840423583984,-25.615921020507812,-7.982179641723633,349.37815425565975,23.878756272356657,48.07623990723737,-0.00222112238407135,-0.0009132549166679382,-0.001831023022532463,349.01137736609826,24.696358944311154,48.21632708711433,0.019276000559329987,0.030988000333309174,0.016835998743772507
14,2022-04-15 18:12:11.007179,-35.59058369321357,134.5775200713208,426.88098048358523,35.1692,28.9274,1017.9626,48.1113,348.6695161528554,25.404232919702107,47.89845008314194,23.118852615356445,-25.847549438476562,-7.624419212341309,348.6727613464848,25.40810392941421,47.689463370012476,0.0006407462060451508,0.000522121787071228,0.0006119348108768463,348.3391808838369,26.173231965522795,47.810996341009094,0.019519999623298645,0.0331839993596077,0.013175999745726585
15,2022-04-15 18:12:16.246397,-35.370603598953615,134.8706803279297,426.77468646869573,35.2225,28.8203,1017.9646,47.7155,348.01374200667965,26.984614042690705,47.49844688458931,22.838451385498047,-25.885112762451172,-7.601415634155273,348.01338171420093,26.98237886328482,47.28730866187129,0.0024790577590465546,0.0001634657382965088,0.0006334688514471054,347.65016335319706,27.675846262168918,47.40669012327936,0.018543999642133713,0.030743999406695366,0.014151999726891518
16,2022-04-15 18:12:21.490867,-35.149571657928014,135.16243577786773,426.6680960356228,35.3292,28.5266,1017.9507,47.2735,347.3339836512334,28.399397229252344,47.03921570064892,22.427444458007812,-25.584728240966797,-8.029104232788086,347.3317074906925,28.39717912531938,46.80884708032273,0.001823917031288147,-0.00010491162538528442,-0.0008334703743457794,346.99281740973856,29.160714019804058,46.93080693814248,0.02000799961388111,0.030988000333309174,0.01439599972218275
17,2022-04-15 18:12:26.731277,-34.92789242659204,135.45228253787633,426.5614096934806,35.2047,28.603,1017.9592,46.7914,346.65675331955373,29.8485926163998,46.5493784390377,22.540550231933594,-25.636886596679688,-7.866444110870361,346.65695139503964,29.847356352160027,46.31083408227501,-0.0008187666535377502,-0.0019509121775627136,-0.0016560852527618408,346.29367156233326,30.504311267288532,46.420946976979366,0.019763998687267303,0.030499998480081558,0.014639999717473984
18,2022-04-15 18:12:31.962896,-34.70578562178324,135.73997424221454,426.45473779045295,35.1692,28.6214,1017.9382,46.2609,345.97112441651586,31.152871879927094,46.01023745690274,22.44027328491211,-25.536653518676758,-7.7783637046813965,345.969374180541,31.15611621978285,45.76681634507266,-0.0017791129648685455,0.001053832471370697,-0.0009921547025442123,345.6254946463984,31.88009578123669,45.887014014086546,0.02025200054049492,0.03245199844241142,0.015615999698638916
19,2022-04-15 18:12:37.203521,-34.48249608403553,136.02651932818046,426.34772315147416,35.3114,28.5174,1017.9609,45.7152,345.3335621159883,32.50328565620324,45.46647585179427,21.995132446289062,-25.412635803222656,-7.577697277069092,345.33363041788,32.50452192044301,45.22264834370858,0.001157362014055252,-0.0007431134581565857,-0.0030651427805423737,345.03981958544813,33.114522700122265,45.30286550041579,0.020739998668432236,0.03245199844241142,0.010979999788105488
20,2022-04-15 18:12:42.444976,-34.25838616616518,136.3114753842917,426.240545658324,35.2581,28.9335,1017.9514,45.1485,344.72668273275974,33.84449575257279,44.8851345458724,22.124311447143555,-25.706111907958984,-8.089340209960938,344.73108137458524,33.84462894126161,44.626529923517374,-0.0006323084235191345,-0.0007428824901580811,0.0006408281624317169,344.47023815772974,34.42109690721068,44.697225796521586,0.02000799961388111,0.03245199844241142,0.013663999736309052
21,2022-04-15 18:12:47.682253,-34.03368169574442,136.59458768844226,426.1333187408169,35.2403,28.7468,1017.95,44.5073,344.1959889870808,35.05052615998404,44.24419983944215,21.933568954467773,-25.643476486206055,-8.224820137023926,344.19577554366924,35.046704669143416,43.983119273513,-0.0014989152550697327,-0.00012886524200439453,0.0024729017168283463,343.8746541998411,35.64946544830246,44.07819892185416,0.019519999623298645,0.03147599846124649,0.01512799970805645
22,2022-04-15 18:12:52.913988,-33.808450969946044,136.87580688476385,426.02608005339187,35.2403,28.6948,1017.9663,43.8556,343.61828304934465,36.2018433370489,43.56529269632122,21.759449005126953,-25.120588302612305,-8.70969009399414,343.6204413891224,36.20372505416524,43.27952441163706,-0.0014605820178985596,0.001972094178199768,0.001215064898133278,343.37778696602663,36.760446943223805,43.34673688816457,0.020983999595046043,0.030988000333309174,0.015859998762607574
23,2022-04-15 18:12:58.157675,-33.58194859789217,137.15608818695762,425.9184809453052,35.3114,28.7683,1017.9377,43.1229,343.09335910596707,37.260864167859374,42.84208153114901,21.428403854370117,-25.226774215698242,-8.415729522705078,343.09277170969847,37.25863069600078,42.56661317173322,-0.0016998499631881714,0.0016684383153915405,0.0014800634235143661,342.775092781212,37.9552382743558,42.67869999110772,0.01903199963271618,0.030988000333309174,0.01659199967980385
24,2022-04-15 18:13:03.398169,-33.35484353143262,137.43462653126684,425.81084568923137,35.3648,28.5724,1017.9385,42.4325,342.5539995577787,38.416979552816166,42.1470448963031,21.64735984802246,-25.38567543029785,-8.342602729797363,342.55430520874404,38.415996005575686,41.86885812159765,-0.003946822136640549,-0.001060187816619873,0.00091593898832798,342.31473290851125,38.941032647074564,41.92876571080783,0.01903199963271618,0.03171999752521515,0.013175999745726585
25,2022-04-15 18:13:08.639789,-33.12696132102773,137.71166623887885,425.70309739448186,35.2403,28.6826,1017.9446,41.6891,342.09304375107286,39.49149466775882,41.39620561593818,21.578947067260742,-25.114356994628906,-8.29499626159668,342.0936533454563,39.49407989435967,41.10984310479623,0.0038489550352096558,-4.034489393234253e-05,-0.002106059342622757,341.8343042324817,40.04440189616594,41.17559733593594,0.02025200054049492,0.030743999406695366,0.015371999703347683
26,2022-04-15 18:13:13.873186,-32.89869745722969,137.98675966948244,425.5954285625767,35.2581,28.7377,1017.9634,40.9357,341.5907431017737,40.494067400173726,40.64812914709253,21.05781364440918,-25.162113189697266,-8.459168434143066,341.58940438469637,40.494832381360766,40.36671510800426,0.00019424781203269958,-0.00010990351438522339,0.0009483136236667633,341.36356759488444,41.01243777704268,40.42307441394061,0.020495999604463577,0.031964000314474106,0.014151999726891518
27,2022-04-15 18:13:19.106901,-32.66972151717129,138.26033849310568,425.4876888157972,35.2759,28.7774,1017.9673,40.1855,341.13217786127734,41.49564975515898,39.89132711158219,20.800552368164062,-24.97286605834961,-8.998011589050293,341.1328301443431,41.492166358682276,39.594329995902534,0.001439414918422699,-0.00010713189840316772,0.0003640260547399521,340.9303167429995,41.99876148942212,39.643152188089786,0.018543999642133713,0.031964000314474106,0.013419999741017818
28,2022-04-15 18:13:24.343402,-32.43990307478242,138.53258417843992,425.37982315332505,35.2936,28.857,1017.9463,39.3745,340.75162533393365,42.48860558122251,39.07007541106362,20.702985763549805,-24.8067684173584,-9.087096214294434,340.74949943755445,42.486686298065734,38.76775074783134,-0.0006493702530860901,-0.0018756240606307983,-0.00023411400616168976,340.58939638831475,42.92249334824757,38.798011900949085,0.019519999623298645,0.03147599846124649,0.01512799970805645
29,2022-04-15 18:13:29.580561,-32.209363975553146,138.80337738426587,425.2718952498935,35.2581,28.7346,1017.9878,38.5185,340.39571100647345,43.336870679908486,38.205814009341466,20.66546058654785,-24.588178634643555,-9.262733459472656,340.39652209143736,43.33793618941901,37.898404270272124,0.0014632120728492737,-0.0009338259696960449,-0.0003087613731622696,340.20702361555726,43.78748558021091,37.93744563156791,0.018300000578165054,0.030988000333309174,0.013175999745726585
30,2022-04-15 18:13:34.824151,-31.97786167400751,139.0730257761339,425.16379837016495,35.2759,28.7499,1017.9614,37.64,340.0346842824195,44.23760870689309,37.31002786950513,20.5068359375,-24.275392532348633,-9.528580665588379,340.03512653716825,44.23805608428373,36.99261190330171,-0.000506814569234848,-0.0005198940634727478,0.0008550882339477539,339.83940746650154,44.690545871513315,37.03507518937168,0.022204000502824783,0.031964000314474106,0.011467999778687954
31,2022-04-15 18:13:40.057627,-31.74612354020966,139.34071147364253,425.0558781677823,35.2581,28.961,1017.9341,36.7654,339.5831490141264,45.1787063216833,36.43879625973498,20.241071701049805,-24.118314743041992,-9.263533592224121,339.57890063646266,45.17500094405857,36.1314616527465,-0.003484562039375305,-0.002280689775943756,0.002001401036977768,339.36825931000675,45.57616868986468,36.171390938634396,0.021715998649597168,0.031964000314474106,0.015615999698638916
32,2022-04-15 18:13:45.300177,-31.513318409815405,139.60742190999045,424.9477538750932,35.2225,28.808,1017.9785,35.8929,339.1546178229579,45.929958828493,35.58439082098516,20.163639068603516,-24.210004806518555,-9.19548225402832,339.15368037949435,45.93205569656819,35.28417327111183,0.001049824059009552,0.0001637488603591919,0.0010889526456594467,338.96986803609826,46.27883464601349,35.315544329969704,0.020495999604463577,0.03171999752521515,0.017079999670386314
33,2022-04-15 18:13:50.532945,-31.280292053066415,139.8722150332588,424.8398246549822,35.347,28.9365,1017.9414,35.0377,338.7987239860652,46.57789447882251,34.735753476989416,20.24232292175293,-23.833959579467773,-9.02320671081543,338.79883156154466,46.57588640320652,34.43773866312342,0.0033952444791793823,0.0003734976053237915,0.0017037168145179749,338.5878538482721,46.928228541730796,34.47488806201912,0.01781199872493744,0.030988000333309174,0.013907999731600285
34,2022-04-15 18:13:55.775546,-31.046175851142095,140.13610401841922,424.7316946879983,35.2225,28.6489,1017.9497,34.1852,338.4637117450126,47.29788862489564,33.88102360425402,20.005435943603516,-23.689075469970703,-9.074132919311523,338.46476359414476,47.29937077594553,33.58478463957223,-0.001437447965145111,0.0006410181522369385,0.00048149004578590393,338.29443916681214,47.67484676518865,33.61689677395504,0.020495999604463577,0.03147599846124649,0.01512799970805645
35,2022-04-15 18:14:01.016418,-30.81149242101057,140.3985206787307,424.6236126064056,35.2581,28.8295,1017.9575,33.3377,338.12153975816244,47.99738195817499,33.03858124183548,19.584962844848633,-23.638141632080078,-9.087634086608887,338.12050669205047,48.00142201506905,32.74773129640882,0.0021142177283763885,4.557520151138306e-05,0.0005199257284402847,337.99110705067733,48.44451687709529,32.775444788966155,0.019763998687267303,0.031231999397277832,0.016835998743772507
36,2022-04-15 18:14:06.258283,-30.576131034769265,140.65961488870352,424.5155339514835,35.2403,28.7285,1017.9607,32.4706,337.8494899084263,48.70221649938529,32.153419461253094,19.149242401123047,-23.53037452697754,-9.881702423095703,337.8478489554782,48.701840838980935,31.844872495686936,0.0015010088682174683,0.000422842800617218,0.0005942266434431076,337.69218894429355,49.047110316619666,31.871571705152515,0.019519999623298645,0.03001200035214424,0.014151999726891518
37,2022-04-15 18:14:11.501469,-30.340086644704364,140.91941629185575,424.4074632575602,35.347,28.7254,1017.9353,31.582,337.52995487603283,49.351685527183456,31.2775057568069,19.077865600585938,-23.272891998291016,-9.588349342346191,337.5306839987267,49.35006335725558,30.979309942927898,0.0006136596202850342,0.001954883337020874,-0.0008443370461463928,337.4342434351935,49.603473620746804,30.99241366085057,0.018300000578165054,0.0302559994161129,0.01512799970805645
38,2022-04-15 18:14:16.757545,-30.102842774386836,141.17851029930264,424.29917208657315,35.2759,28.8386,1017.9504,30.6975,337.3178382287162,49.87409937604105,30.39863116535551,19.569608688354492,-23.129507064819336,-9.81480598449707,337.31745915321727,49.87736420646432,30.094353068020613,-0.0006261169910430908,0.0006580427289009094,9.23052430152893e-05,337.19791376726914,50.22671472213213,30.11525344688085,0.02025200054049492,0.03245199844241142,0.013175999745726585
39,2022-04-15 18:14:21.992996,-29.865928530006958,141.4352563836657,424.1913644025082,35.2225,28.8539,1017.9097,29.8374,337.0542953795913,50.57051912419389,29.539130405484862,18.70683479309082,-23.197004318237305,-10.056144714355469,337.0512849737146,50.565966803112076,29.240811648200797,-0.0017741471529006958,0.0012222379446029663,0.0024452321231365204,336.8834347824088,50.83965248315449,29.266479499101706,0.022204000502824783,0.031964000314474106,0.015371999703347683
40,2022-04-15 18:14:27.226569,-29.628495223965366,141.6906115915945,424.08365862130796,35.347,28.7774,1017.9175,28.9883,336.7055971469892,51.09979731316735,28.691944476687745,18.729114532470703,-22.97453498840332,-9.895035743713379,336.70505585449746,51.09936359615506,28.401765597347044,-0.0005849599838256836,5.698949098587036e-05,0.0013917293399572372,336.57402721300724,51.41029088264696,28.42249863657262,0.019276000559329987,0.03245199844241142,0.01268799975514412
41,2022-04-15 18:14:32.468960,-29.390069546248014,141.94510531482365,423.9758475242677,35.2403,28.7224,1017.9141,28.1287,336.4642985164437,51.7476544163214,27.819509046076384,18.256149291992188,-22.769207000732422,-10.47062873840332,336.4622938559223,51.74617568036609,27.514759665688754,0.00025770068168640137,-0.00018592923879623413,0.001613173633813858,336.35295277259416,52.04083004116044,27.531269940459968,0.019519999623298645,0.03147599846124649,0.011467999778687954
42,2022-04-15 18:14:37.711137,-29.151077784262732,142.19830198011223,423.868131547204,35.2759,28.7193,1017.958,27.2664,336.2223356500014,52.390358141746674,26.981955391556276,18.066734313964844,-22.750385284423828,-9.951957702636719,336.2202404894735,52.389593160559635,26.700193012820325,-0.00043271854519844055,-0.0007062628865242004,-0.0011241864413022995,336.0984121127953,52.649881424545065,26.713590428877307,0.01903199963271618,0.032207999378442764,0.010979999788105488
43,2022-04-15 18:14:42.952036,-28.911567447627313,142.4501759927443,423.76053882003106,35.2759,28.7224,1017.9338,26.4127,335.99295569955757,53.01262594117527,26.092599874823502,17.894582748413086,-22.264007568359375,-10.831547737121582,335.99125327490697,53.00985288437224,25.77582082376019,-0.001893017441034317,0.0005469396710395813,0.0006711035966873169,335.82812786695956,53.21201623852087,25.79323097595455,0.020495999604463577,0.032207999378442764,0.013663999736309052
44,2022-04-15 18:14:48.186785,-28.671775592713438,142.70050560828253,423.6531819676121,35.3114,28.7989,1017.9355,25.5116,335.7048702731975,53.48115642767063,25.21469346268696,17.854143142700195,-21.967426300048828,-10.276135444641113,335.7029475749461,53.48401486183829,24.917137979042646,0.0011027902364730835,0.0008797124028205872,-0.0002086348831653595,335.61771535184084,53.783405958822044,24.93027926300575,0.019276000559329987,0.030499998480081558,0.013907999731600285
45,2022-04-15 18:14:53.430573,-28.43100000294037,142.9500456746527,423.54575385710143,35.2047,28.6061,1017.9368,24.64,335.50771686280507,54.012265107341655,24.347018673927096,17.932538986206055,-22.112356185913086,-10.269351959228516,335.50651474951115,54.014423447119384,24.060960106203208,-0.001359313726425171,0.0017278417944908142,-0.0014047808945178986,335.406706902717,54.288443806431125,24.075580126121622,0.019519999623298645,0.03147599846124649,0.013419999741017818
46,2022-04-15 18:14:58.667318,-28.190006575889367,143.1980244732263,423.4386033838784,35.2936,28.5327,1017.9648,23.8049,335.30489098030694,54.5356249373993,23.533534606042117,17.666553497314453,-22.108322143554688,-10.062664985656738,335.3052615180694,54.53572739023685,23.263067652646075,-0.0019227638840675354,-0.00011993944644927979,-0.0011297240853309631,335.20140336909753,54.75064270756589,23.27295605901696,0.019763998687267303,0.0302559994161129,0.013663999736309052
47,2022-04-15 18:15:03.912956,-27.948060341004837,143.4452203729715,423.3314109429002,35.3114,28.7162,1017.9373,23.0087,335.0823924454519,54.9641510059259,22.735283567553555,17.50952911376953,-21.821571350097656,-10.162333488464355,335.0819604359869,54.961712628392206,22.466524161450018,0.0014105327427387238,0.00012511759996414185,4.346296191215515e-05,334.97492454150364,55.18869005979548,22.47839673777479,0.019519999623298645,0.032207999378442764,0.016103999689221382
48,2022-04-15 18:15:09.150881,-27.705929633538084,143.69087038804588,423.2245240924618,35.2759,28.6459,1017.9133,22.1982,334.906310168649,55.35131003374432,21.920626414678626,17.28907012939453,-21.70686149597168,-10.373043060302734,334.90648775356743,55.353266882941526,21.652570518059598,-0.0008403398096561432,0.0003278777003288269,-0.0008184723556041718,334.87343134553186,55.65220718744006,21.657194556127696,0.02025200054049492,0.03269600123167038,0.007075999863445759
49,2022-04-15 18:15:14.389307,-27.463250002778263,143.93537023215544,423.11778819072094,35.2759,28.7621,1017.917,21.4049,334.753578601071,56.083718048633955,21.1298612635204,17.329069137573242,-21.48465347290039,-10.34376335144043,334.7539064501512,56.084483029820994,20.855458413615136,0.0019032545387744904,0.002442687749862671,0.0004507247358560562,334.66240240584057,56.32023042411857,20.869624225953743,0.02122800052165985,0.030499998480081558,0.01439599972218275
50,2022-04-15 18:15:19.620291,-27.220398195933157,144.17836588942131,423.0113751827696,35.3292,28.7132,1017.9453,20.6019,334.52565006582586,56.48359488868694,20.32550745100843,17.263593673706055,-21.734766006469727,-10.77003288269043,334.5233721977376,56.48443841704943,20.051012393549374,-0.0005468800663948059,0.0026731491088867188,-0.0018628109246492386,334.4504445604221,56.7618465501895,20.063023281204842,0.01756799966096878,0.031964000314474106,0.01268799975514412
51,2022-04-15 18:15:24.863154,-26.976485302731565,144.42076669857204,422.9049031297663,35.2047,28.909,1017.9292,19.7839,334.4203353790134,56.992160529002334,19.50170979747673,17.1622314453125,-21.429258346557617,-10.808361053466797,334.42180557723225,56.99200001955683,19.230706674230845,0.0015050284564495087,-6.277859210968018e-05,-0.0008893515914678574,334.3477219303997,57.17072899466314,19.236310844444837,0.020739998668432236,0.03294000029563904,0.013907999731600285
52,2022-04-15 18:15:30.096013,-26.73252872499889,144.66158238174225,422.7988234377015,35.2759,28.6245,1017.9541,18.9633,334.2586648013592,57.365747970939935,18.693695003569637,16.76276397705078,-21.132625579833984,-10.573773384094238,334.2579203107397,57.365625027534875,18.43344772071923,0.0008857734501361847,-0.0014290064573287964,3.204867243766785e-05,334.1660201154572,57.59149255319802,18.441700296783896,0.020739998668432236,0.033427998423576355,0.010003999806940556
53,2022-04-15 18:15:35.331754,-26.487940414293043,144.90141819282005,422.69288666728386,35.3114,28.6979,1017.9609,18.2041,334.06874626884513,57.89985510365659,17.94857259154002,16.60191535949707,-20.847457885742188,-10.37016487121582,334.06863527827113,57.8987827639569,17.694890828029287,7.1302056312561035e-06,8.69259238243103e-05,0.0021508801728487015,333.96970681833267,58.039156811779,17.703505404119966,0.02000799961388111,0.03001200035214424,0.01512799970805645
54,2022-04-15 18:15:40.565232,-26.242972342081927,145.14004808650438,422.5872091097338,35.507,28.6367,1017.9421,17.4554,333.8750523492673,58.141227158735674,17.2001033868171,16.55162811279297,-20.300926208496094,-10.37234878540039,333.8754245945771,58.1413569323299,16.943665641976263,0.0015643537044525146,8.321553468704224e-05,0.0018609650433063507,333.7729854174052,58.31532868067929,16.95382554836666,0.02122800052165985,0.03171999752521515,0.013419999741017818
55,2022-04-15 18:15:45.802550,-25.99733573874993,145.37777372534208,422.4816734987226,35.2759,28.6551,1017.9358,16.685,333.664776437932,58.486247334469695,16.414882641717632,16.428239822387695,-20.18007469177246,-10.718286514282227,333.66602465500284,58.48743578738528,16.149867886826552,0.002140011638402939,0.0015763714909553528,0.0006185993552207947,333.5762759693089,58.70225206697135,16.16198122731957,0.018543999642133713,0.0302559994161129,0.015615999698638916
56,2022-04-15 18:15:51.046984,-25.75088903513445,145.61474814394458,422.3762275134227,35.3292,28.7744,1017.9417,15.8863,333.5332901737674,58.78144811039765,15.607941895057523,15.880059242248535,-19.945783615112305,-11.238639831542969,333.5320556170749,58.774665732551824,15.33309508285621,0.0010931715369224548,-0.0017409473657608032,-0.0009392779320478439,333.46163465918477,58.887869287855615,15.33335463004467,0.019763998687267303,0.030743999406695366,0.01659199967980385
57,2022-04-15 18:15:56.279550,-25.50452773676313,145.85013299731818,422.27126085181027,35.2759,28.8264,1017.9407,15.0422,333.40245107002664,58.942312725729785,14.754781258283938,16.0075626373291,-20.124723434448242,-11.57111644744873,333.4052412023026,58.942374197432315,14.480871889546208,0.0016575604677200317,0.0006443336606025696,2.8660520911216736e-05,333.37739110596186,59.06263333814873,14.483272701039468,0.020983999595046043,0.03245199844241142,0.015371999703347683
58,2022-04-15 18:16:01.513062,-25.25766634876572,146.0845128866287,422.16652978844803,35.2403,28.5357,1017.9551,14.203,333.3038794874723,59.172660855488466,13.927559972430767,16.15467071533203,-19.818632125854492,-11.445454597473145,333.30537359135326,59.17625353499189,13.665323396984592,0.0007112286984920502,3.6679208278656006e-05,0.000314369797706604,333.25171221013903,59.34783471713178,13.67001317562345,0.01903199963271618,0.03367199748754501,0.013419999741017818
59,2022-04-15 18:16:06.755212,-25.009940048459622,146.3182504715318,422.06188791130114,35.2759,28.4317,1017.928,13.4021,333.23267305782764,59.52554940914634,13.13898901954341,15.907333374023438,-19.438806533813477,-11.37325668334961,333.23368904846666,59.525679182740575,12.878844189530549,0.0006847493350505829,-0.0017562955617904663,-0.00030997954308986664,333.1827272995219,59.63252383192709,12.878713562162671,0.02025200054049492,0.03171999752521515,0.014639999717473984
60,2022-04-15 18:16:12.000958,-24.76158453525986,146.55113831940236,421.9574435727643,35.3648,28.7315,1017.9634,12.6364,333.11711650235475,59.74273576437441,12.394660617004806,15.568155288696289,-19.04244613647461,-10.860342979431152,333.11700551178075,59.74207323602492,12.157891255652668,9.009242057800293e-05,0.00128839910030365,1.0423362255096436e-05,333.0761951314899,59.82553814768247,12.161381482318545,0.018543999642133713,0.03171999752521515,0.014639999717473984
61,2022-04-15 18:16:17.245708,-24.512841272883403,146.78296891596227,421.8533058360399,35.2047,28.6918,1017.9202,11.9147,333.05549282811563,59.933024834650965,11.66758697985695,14.562588691711426,-19.365571975708008,-11.31048583984375,333.0546356393748,59.932621853489934,11.428381802292055,-0.0037818290293216705,0.0006639882922172546,0.0003243591636419296,332.9573822833303,60.07360378814817,11.43647557645852,0.019763998687267303,0.03171999752521515,0.013907999731600285
62,2022-04-15 18:16:22.482541,-24.264033549267058,147.01346434814536,421.7496159903093,35.2759,28.652,1017.9092,11.1915,332.90406753421644,60.19714141966619,10.94015134268308,14.561509132385254,-19.45543670654297,-12.002094268798828,332.90217215672175,60.19901972168794,10.68185834770894,0.0013117752969264984,-0.0013457834720611572,-0.0006468333303928375,332.8012578192821,60.35638728016504,10.687452272639181,0.019763998687267303,0.03171999752521515,0.01195599976927042
63,2022-04-15 18:16:27.723283,-24.01461299619142,147.24315376186053,421.6461521116368,35.347,28.5571,1017.9375,10.446,332.74047255076357,60.5337604627211,10.20141686507472,14.8284273147583,-18.88401222229004,-11.559831619262695,332.74068087153324,60.53610321760641,9.957000253173106,9.663775563240051e-05,-0.001294843852519989,-0.00031173788011074066,332.7176443510101,60.66274858519679,9.95657336634998,0.020983999595046043,0.030743999406695366,0.014639999717473984
64,2022-04-15 18:16:32.965461,-23.76469436268112,147.47194873414784,421.5429696914543,35.2759,28.7989,1017.9382,9.7179,332.63045869380215,60.73870028876733,9.476362402600246,14.665770530700684,-18.657440185546875,-11.627285957336426,332.6312612410297,60.735742816856714,9.24167710271861,0.0003297440707683563,-0.0003587678074836731,0.00028045661747455597,332.6043093145648,60.78313066931826,9.24199129142043,0.019519999623298645,0.030499998480081558,0.017324000597000122
65,2022-04-15 18:16:38.208041,-23.514337691517948,147.6998127291678,421.4401009408777,35.3114,28.6918,1017.9414,9.0033,332.57031034042376,60.775603800852906,8.76653328555938,14.51915454864502,-18.551298141479492,-11.967531204223633,332.57151074617036,60.77557648009623,8.522469282173669,-0.001765478402376175,-0.0010049641132354736,-0.0006710756570100784,332.4891454949692,60.88794675232128,8.525156107838422,0.019763998687267303,0.0331839993596077,0.012443999759852886
66,2022-04-15 18:16:43.454801,-23.26337713271154,147.92691405155864,421.33748548913144,35.3292,28.5663,1017.8931,8.2866,332.45647499262174,61.05782038716867,8.053091852221222,14.603421211242676,-18.43058204650879,-11.7059965133667,332.4571716719171,61.058640009869066,7.824562260329057,0.00516151636838913,-2.5540590286254883e-05,0.0012104474008083344,332.42923278311713,61.21447077578291,7.827327633169266,0.019519999623298645,0.032207999378442764,0.013663999736309052
67,2022-04-15 18:16:48.691811,-23.012472341798002,148.15267667666382,421.235399377672,35.2759,28.4164,1017.9216,7.5898,332.39750143178054,61.329573123675964,7.348206938365797,14.749319076538086,-18.083547592163086,-12.0900297164917,332.3972709128961,61.3322300672631,7.100958786166389,0.0006624870002269745,0.001833803951740265,-0.0005186758935451508,332.3013972550639,61.51667249561012,7.111784209114036,0.02147199958562851,0.03147599846124649,0.013419999741017818
68,2022-04-15 18:16:53.923648,-22.76142009532981,148.37730751361204,421.1337648528196,35.3292,28.603,1017.9294,6.8739,332.2132519562776,61.62232186169188,6.642628333422793,14.474066734313965,-17.31153106689453,-11.16137409210205,332.2132536638249,61.620334276643405,6.429401780366042,-0.0010482929646968842,-4.602968692779541e-05,-0.0008992906659841537,332.08689004153774,61.73357881308222,6.436002304425213,0.022204000502824783,0.03245199844241142,0.01195599976927042
69,2022-04-15 18:16:59.167024,-22.509416771148626,148.60154174481383,421.0322646066369,35.2581,28.5847,1017.9155,6.2268,331.99127251579944,61.89080976777591,6.012478495692001,14.197407722473145,-17.4763126373291,-11.290669441223145,331.99271710080893,61.894689315224475,5.80489624021062,0.00337262824177742,0.00023435801267623901,0.0003779623657464981,331.94296771044185,62.00695030442281,5.808132469216737,0.020739998668432236,0.030499998480081558,0.014883999712765217
70,2022-04-15 18:17:04.410654,-22.257021139325825,148.82489630282637,420.93113252019424,35.3648,28.5663,1017.9141,5.5894,331.8755247150298,62.04595751477275,5.3637697533258155,13.9058837890625,-17.068401336669922,-11.797526359558105,331.8745548281677,62.04672249595979,5.131179187085256,0.00034857913851737976,0.00017798691987991333,9.320862591266632e-05,331.83444795736136,62.15275435263507,5.133579571691692,0.01878799870610237,0.03147599846124649,0.01268799975514412
71,2022-04-15 18:17:09.655918,-22.004163137828844,149.04745073198677,420.83034786182986,35.3114,28.808,1017.9265,4.886,331.8183867675281,62.27016530446759,4.642348097716144,13.445194244384766,-17.128742218017578,-12.143808364868164,331.8167475221273,62.26663409666669,4.406341156230108,-0.0017749890685081482,0.0007434487342834473,-0.0017879996448755264,331.78720012377784,62.36994070786314,4.407742625670431,0.020495999604463577,0.03269600123167038,0.017324000597000122
72,2022-04-15 18:17:14.891371,-21.751399701485962,149.26873556979274,420.73013842303686,35.3114,28.5602,1017.9363,4.1657,331.7718287830507,62.364230669717,3.9262245344682865,13.764729499816895,-16.986980438232422,-12.305419921875,331.7710006226138,62.36209282050679,3.688171951325832,-0.00016169995069503784,-0.0013586431741714478,-0.0002461317926645279,331.7495487059781,62.40504105000783,3.6867341965055447,0.020983999595046043,0.03171999752521515,0.01439599972218275
73,2022-04-15 18:17:20.134414,-21.497906644874092,149.4894909351013,420.63018412056056,35.3648,28.5204,1017.9146,3.4597,331.69328160759557,62.46787196018278,3.234156897477214,13.425577163696289,-16.825992584228516,-12.102970123291016,331.69353944723673,62.47049475282407,3.0129846999816228,-0.0019135437905788422,-0.0010032877326011658,0.0006482396274805069,331.6557787464103,62.53901521057763,3.0132856551919267,0.019519999623298645,0.032207999378442764,0.01512799970805645
74,2022-04-15 18:17:25.375393,-21.244146726480235,149.70932965164693,420.53067526823475,35.3114,28.4929,1017.9153,2.7815,331.6477157080951,62.58496872331348,2.5496492126802877,13.390299797058105,-16.574016571044922,-12.499275207519531,331.6477583967774,62.585440006366206,2.3147615684444878,-0.0023519769310951233,-0.0007507354021072388,-0.000567147508263588,331.6253024423337,62.637643142192616,2.3139453608386713,0.019276000559329987,0.03147599846124649,0.014639999717473984
75,2022-04-15 18:17:30.609471,-20.990362647893978,149.92806181927335,420.4317125967962,35.347,28.7683,1017.9268,2.0779,331.6119494225063,62.685864277732904,1.8415244412807497,13.543448448181152,-15.911664962768555,-12.424322128295898,331.6111998092449,62.68209401331106,1.6062471560971419,0.0013144463300704956,-0.0007617399096488953,0.0005856715142726898,331.5995492140682,62.77769617112373,1.606151853613879,0.02000799961388111,0.031231999397277832,0.01268799975514412
76,2022-04-15 18:17:35.841676,-20.73632014916661,150.14590943391656,420.3332102755933,35.3648,28.7774,1017.9163,1.3855,331.55377840889264,62.87886493310996,1.166222250659414,13.119184494018555,-15.890774726867676,-12.249267578125,331.5546185221605,62.878687348191534,0.9444976616146981,-0.001381073147058487,-0.0024884268641471863,-0.0006254073232412338,331.47777206380874,62.974350977706735,0.9445623349684017,0.01781199872493744,0.031964000314474106,0.013907999731600285
77,2022-04-15 18:17:41.083839,-20.481451765060065,150.3633737357702,420.2349564625899,35.3292,28.6214,1017.9182,0.706,331.50688403759864,63.04503660542719,0.4607375074566446,13.2124662399292,-15.913745880126953,-13.027962684631348,331.5053609054137,63.04570596396586,0.21776550724491495,-0.00019173696637153625,0.0008219406008720398,-6.235204637050629e-05,331.4813801112378,63.18421537014454,0.22057458262364135,0.020495999604463577,0.031964000314474106,0.014883999712765217
78,2022-04-15 18:17:46.320947,-20.226483860189095,150.579850423645,420.13723885105674,35.2225,28.4164,1017.9209,359.9868,331.4483800522629,63.220859335041666,359.75673915749155,13.187411308288574,-15.613016128540039,-12.929931640625,331.44895720324774,63.21671341021547,359.52297798754074,-0.0001682490110397339,0.0001329481601715088,0.0014477409422397614,331.43873753270213,63.125714799903385,359.52390475883374,0.01903199963271618,0.031964000314474106,0.013907999731600285
79,2022-04-15 18:17:51.568045,-19.970699025684024,150.79596399767408,420.0397901660549,35.3292,28.4623,1017.9165,359.291,331.43729465523995,63.19286921982295,359.06383420867735,13.447233200073242,-15.412713050842285,-12.829886436462402,331.43708462692297,63.19127778574634,358.84157483716496,0.0010367408394813538,0.0016068071126937866,0.0005152653902769089,331.4186892199408,63.29261730246182,358.8448595178255,0.019276000559329987,0.03171999752521515,0.015859998762607574
80,2022-04-15 18:17:56.812316,-19.71472123554297,151.01120189419208,419.9428561368963,35.2936,28.7224,1017.9141,358.6208,331.41977180492427,63.295363038508164,358.3891734155078,12.94584846496582,-15.145354270935059,-12.935606002807617,331.4201782011799,63.300779378519984,358.16132139972564,-0.0014074258506298065,7.519125938415527e-05,0.001682499423623085,331.3693359805456,63.45896655969748,358.1665680522253,0.02025200054049492,0.0302559994161129,0.012931999750435352
81,2022-04-15 18:18:02.046116,-19.458929405013855,151.2252660015618,419.8465848010797,35.2581,28.7254,1017.9346,357.9505,331.30972891965894,63.525957055076965,357.7234381854795,13.203957557678223,-14.975017547607422,-13.17693042755127,331.3103675423463,63.526872300425744,357.491192543792,-0.00022566691040992737,5.257129669189453e-05,-7.920525968074799e-05,331.25047702860905,63.63369645904474,357.4943961159562,0.020495999604463577,0.03171999752521515,0.012931999750435352
82,2022-04-15 18:18:07.288096,-19.202416273592533,151.4389326640705,419.75064106869246,35.347,28.603,1017.9031,357.2593,331.20760734628345,63.71657397443368,357.06104814731896,12.884974479675293,-15.249215126037598,-12.679342269897461,331.20747074250005,63.71840446513124,356.868724321,0.002131819725036621,-0.0012111887335777283,-0.0009574182331562042,331.18713726934095,63.79515530083468,356.86716191522737,0.01781199872493744,0.03269600123167038,0.013907999731600285
83,2022-04-15 18:18:12.521233,-18.946023502429085,151.6515172500509,419.6553463328505,35.2759,28.5786,1017.9443,356.6422,331.23088463097486,63.85902439976346,356.41705223548007,12.521744728088379,-14.821951866149902,-13.305876731872559,331.2317657253778,63.858238928008916,356.18939434648075,-0.0008798837661743164,-0.0008402988314628601,0.001175088807940483,331.236734687999,63.87425572161259,356.18893971201413,0.018300000578165054,0.03171999752521515,0.01512799970805645
84,2022-04-15 18:18:17.761627,-18.688971112084364,151.86368309827867,419.5604170685042,35.3648,28.7958,1017.9229,355.982,331.2618458784825,63.88687791119878,355.7753777341854,12.094056129455566,-14.673458099365234,-12.88321304321289,331.26251182192664,63.88686425082044,355.5677719999287,-0.002083737403154373,0.00036778301000595093,-0.0015272200107574463,331.22680359294577,63.96840987932122,355.56883409434465,0.019276000559329987,0.032207999378442764,0.009759999811649323
85,2022-04-15 18:18:23.007154,-18.431363189281843,152.07535695868458,419.46590050494837,35.347,28.5633,1017.9326,355.3218,331.2062583839224,64.15096717545732,355.0774229010166,12.010498046875,-13.955016136169434,-13.308196067810059,331.2070097047311,64.15020219427028,354.8393733060819,-0.0007909573614597321,-0.0014377608895301819,-0.0005636364221572876,331.12572362341876,64.3009581296308,354.8430731341779,0.021959999576210976,0.03391600027680397,0.01512799970805645
86,2022-04-15 18:18:28.245559,-18.17380950867528,152.28605424863252,419.3720265996365,35.347,28.8784,1017.9404,354.5988,331.091282394529,64.33387964143026,354.3567060355519,12.160229682922363,-14.00331974029541,-13.677403450012207,331.09150096058244,64.33787530209472,354.11207854155964,-0.0011161267757415771,0.0022809281945228577,0.0022040419280529022,331.024633408608,64.39187477767284,354.1190346623425,0.020495999604463577,0.03147599846124649,0.016835998743772507
87,2022-04-15 18:18:33.486254,-17.915848453901113,152.49616967597893,419.27863278515184,35.2581,28.6306,1017.9373,353.8749,331.00687150167136,64.34142017027395,353.6469473548368,11.81808090209961,-13.68013858795166,-13.162274360656738,331.0061201808627,64.34014975508833,353.42653032013135,0.0028541013598442078,-0.002911001443862915,0.0009819157421588898,330.96337344194217,64.42789719535548,353.4249239450159,0.02122800052165985,0.031231999397277832,0.011467999778687954
88,2022-04-15 18:18:38.720634,-17.657916806032524,152.7053641649635,419.18588294517184,35.3114,28.6,1017.9319,353.1789,330.8933708331387,64.53425007092176,352.9421952027834,11.329483032226562,-13.592362403869629,-13.322875022888184,330.8940982482853,64.53198244811732,352.71445236330624,-0.00019984692335128784,-0.0007723867893218994,0.00037057511508464813,330.87490200162296,64.58497105569828,352.71416634913476,0.01903199963271618,0.03147599846124649,0.014883999712765217
89,2022-04-15 18:18:43.947928,-17.40003946785789,152.9136363635535,419.0937900528086,35.3292,28.6306,1017.9058,352.4946,330.88415007775916,64.58710890490849,352.2634045997652,11.74232292175293,-13.22744369506836,-13.757176399230957,330.8811140586731,64.58481396134736,352.0272841063842,-0.003559798002243042,-0.00016198307275772095,0.000981353223323822,330.8721562655766,64.59222471659682,352.02779637057193,0.02025200054049492,0.032207999378442764,0.013663999736309052
90,2022-04-15 18:18:49.186018,-17.14136554826914,153.12168790933507,419.0020573024764,35.3292,28.7285,1017.9158,351.7903,330.85342105668326,64.64040487100209,351.55521387435147,11.208162307739258,-13.10646915435791,-13.641221046447754,330.85263558492875,64.64391558823549,351.32283461708835,0.00163215771317482,0.0016705617308616638,-0.0020732413977384567,330.82022292222246,64.70227955469323,351.32471548043105,0.020495999604463577,0.03147599846124649,0.011467999778687954
91,2022-04-15 18:18:54.423504,-16.88245100496622,153.3290844572203,418.9108900171261,35.2581,28.7927,1017.9172,351.106,330.7746723906476,64.80668582634605,350.8841452270768,11.368844985961914,-12.792222023010254,-13.527518272399902,330.7738356924743,64.80863243025951,350.6626063338001,0.0007162615656852722,0.00044877082109451294,-0.0005459897220134735,330.74225289775217,64.89959005943656,350.6643480320385,0.02000799961388111,0.03171999752521515,0.011711999773979187
92,2022-04-15 18:18:59.662876,-16.623165011613217,153.53594560779538,418.8202487016279,35.2581,28.4164,1017.9175,350.4267,330.7151609524093,64.99563617954529,350.19419879070983,11.156874656677246,-12.470351219177246,-13.811399459838867,330.71220348049866,64.98943436777891,349.9566729859071,-0.0032537616789340973,0.00136527419090271,6.465800106525421e-05,330.7209290471634,64.8953007006378,349.9588680379516,0.020495999604463577,0.031964000314474106,0.010979999788105488
93,2022-04-15 18:19:04.895192,-16.364000978475524,153.7418940698397,418.7303110114132,35.3292,28.5541,1017.9446,349.736,330.6818603651109,65.01706248297161,349.5122052558577,11.520270347595215,-12.487786293029785,-13.980806350708008,330.6807026480466,65.01653655840552,349.2841768290959,-0.000199243426322937,0.0004491955041885376,0.001591704785823822,330.7152599901523,65.00984980320808,349.2858075367602,0.022204000502824783,0.031964000314474106,0.014151999726891518
94,2022-04-15 18:19:10.120374,-16.104874907447382,153.94701464315693,418.64105136125204,35.2936,27.113,1017.907,349.049,330.65249396677444,65.03168591798462,348.8172796115858,11.278313636779785,-12.211996078491211,-14.298481941223145,330.65132941952095,65.03611871075596,348.5755233583659,0.0001055598258972168,0.000449448823928833,-0.00024067237973213196,330.6163042094571,65.08377294059513,348.5767912122306,0.018055999651551247,0.030743999406695366,0.012443999759852886
95,2022-04-15 18:19:15.348891,-15.84536013172355,154.15166053424,418.55232827261017,35.3292,28.6092,1017.9363,348.3239,330.63270007855976,65.14159049191929,348.07594112435635,10.911883354187012,-11.924043655395508,-14.354866981506348,330.62858488958483,65.14043618994955,347.8327300408433,-0.0008107759058475494,-0.0001616254448890686,-0.00024076364934444427,330.615235284852,65.2004189112406,347.83271211159666,0.02000799961388111,0.03147599846124649,0.01439599972218275
96,2022-04-15 18:19:20.596529,-15.58465704277553,154.35647214563176,418.463878633973,35.2047,28.6795,1017.9365,347.5917,330.60233647260446,65.20483804363361,347.35487293103625,10.712993621826172,-11.622798919677734,-14.067002296447754,330.5992765478563,65.20906593072985,347.1207220934572,-0.0017271824181079865,-0.0016887784004211426,0.002507580444216728,330.6214166060509,65.2400749895617,347.11947643770725,0.01878799870610237,0.0302559994161129,0.01756799966096878
97,2022-04-15 18:19:25.829081,-15.324447234955404,154.56014208065847,418.3762797788586,35.2936,28.6,1017.927,346.8666,330.64424309825705,65.13185747235202,346.61174493424426,10.267595291137695,-11.140941619873047,-14.26206111907959,330.64464607941807,65.1351632839103,346.3554873356428,0.0019375346601009369,0.0004492923617362976,0.000369001179933548,330.60249356695533,65.2459079711129,346.3585455528437,0.01781199872493744,0.031964000314474106,0.01634800061583519
98,2022-04-15 18:19:31.070307,-15.063609726931876,154.7635637690347,418.2891589281439,35.3292,28.5969,1017.9202,346.1212,330.6626811939215,65.1985747601647,345.8801317826193,10.397644996643066,-11.269947052001953,-14.454787254333496,330.6610829296557,65.19875234508312,345.63818855297086,-0.0020324327051639557,-0.0001617148518562317,0.0012845415621995926,330.63935609790593,65.27997695469291,345.6396860719464,0.019519999623298645,0.03147599846124649,0.015371999703347683
99,2022-04-15 18:19:36.297020,-14.803191541074602,154.9659361242343,418.20287063056395,35.2936,28.5419,1017.9219,345.3969,330.6440006265415,65.25374902828007,345.1540186408235,10.519018173217773,-10.657123565673828,-14.34572982788086,330.64363179632636,65.25321627352481,344.9134866990123,0.0013276450335979462,-0.0007726624608039856,-0.0020752251148223877,330.62429894588064,65.24859223545671,344.91117297243096,0.019519999623298645,0.0331839993596077,0.012931999750435352
100,2022-04-15 18:19:41.538461,-14.541845853292818,155.16831987806367,418.1169746407086,35.2581,28.5724,1017.897,344.6507,330.6372865505874,65.31800061780238,344.38354598168934,10.350157737731934,-9.865962028503418,-14.862421035766602,330.637190927939,65.32036386325521,344.0984709612059,0.0013272501528263092,-0.001688636839389801,-0.0002425890415906906,330.6262113988482,65.29990744669101,344.0957901119567,0.020983999595046043,0.031964000314474106,0.013907999731600285
101,2022-04-15 18:19:46.771857,-14.280678114903097,155.36987195065575,418.03184124206507,35.2936,28.7866,1017.9121,343.8316,330.59276396248265,65.32340329743586,343.5713272063481,10.593422889709473,-9.99260139465332,-14.947303771972656,330.59294837759023,65.32220801433111,343.3130128670328,0.0007163248956203461,-0.00046722590923309326,-0.00024285726249217987,330.5237107499738,65.37997775433108,343.3142201029686,0.020495999604463577,0.03147599846124649,0.01195599976927042
102,2022-04-15 18:19:52.014975,-14.018809454548197,155.57128441143445,417.9471899826385,35.2759,28.4868,1017.9241,343.0637,330.48664331334817,65.45571089184817,342.8150408501201,10.492276191711426,-10.086127281188965,-15.15544605255127,330.4855060868514,65.45770530708582,342.5623853225322,0.0007163956761360168,-0.0019938647747039795,-0.0005480684340000153,330.4726721614009,65.4868428940851,342.55954567138474,0.02122800052165985,0.031231999397277832,0.014151999726891518
103,2022-04-15 18:19:57.237964,-13.757597733345609,155.77152836222308,417.8634638412161,35.3648,28.7224,1017.928,342.303,330.42798564875613,65.48954081880724,342.058899635412,10.436544418334961,-10.153326988220215,-15.076041221618652,330.4298468753049,65.48934274332132,341.8261404488763,0.0007164925336837769,0.001671336591243744,-0.0011593550443649292,330.4739596520595,65.36958903660349,341.8300797604801,0.018543999642133713,0.0302559994161129,0.014151999726891518
104,2022-04-15 18:20:02.366666,-13.501023760740852,155.96758710351293,417.78192093521807,35.3114,28.5143,1017.9219,341.6004,330.48371316219425,65.36082590389836,341.3663543120658,10.061129570007324,-9.56326961517334,-14.856635093688965,330.4826339923054,65.36045024349401,341.12733013451395,0.0001052655279636383,-0.0007722228765487671,-0.0017700772732496262,330.4746734068277,65.37790820701257,341.12628853066553,0.01903199963271618,0.03147599846124649,0.01439599972218275
105,2022-04-15 18:20:07.600054,-13.239136454651469,156.1670772443258,417.69940514511865,35.2581,28.7468,1017.9358,340.8857,330.48907144559814,65.3787893014155,340.642456712882,10.036251068115234,-9.402716636657715,-15.164630889892578,330.48717606810345,65.37665145220528,340.3988477708498,0.0004107840359210968,0.0010606124997138977,-0.0020753145217895508,330.458031650915,65.3793562071166,340.399047553883,0.02000799961388111,0.030988000333309174,0.01439599972218275
106,2022-04-15 18:20:12.836952,-12.97674266590128,156.3663312769235,417.6174586960687,35.1692,28.6,1017.9006,340.1514,330.4418441025821,65.37342760291703,339.8992501689146,9.948052406311035,-9.153613090515137,-15.51439094543457,330.44057368739647,65.37721152771722,339.6417469145632,-0.0014217682182788849,-0.002909645438194275,-0.0014641787856817245,330.433886932199,65.44992572162117,339.63718434819765,0.02000799961388111,0.031964000314474106,0.01268799975514412
107,2022-04-15 18:20:18.075415,-12.714079921376833,156.56518115095864,417.53616270912664,35.347,28.6245,1017.906,339.3783,330.42139451620704,65.50773644275617,339.1146526785769,9.564818382263184,-8.83012580871582,-15.553156852722168,330.42075589351964,65.50503851803401,338.85156574457903,0.0010220371186733246,-0.0004655569791793823,6.258673965930939e-05,330.4071945529226,65.5512105968233,338.85120032945844,0.01903199963271618,0.031964000314474106,0.013907999731600285
108,2022-04-15 18:20:23.317710,-12.451023203549477,156.76373416872352,417.4554849438628,35.4003,28.7683,1017.8994,338.5675,330.4263771392066,65.56997312647331,338.2871291568529,9.211930274963379,-8.5403413772583,-15.975509643554688,330.426233705234,65.56468656005573,337.9983521738394,-0.00019914284348487854,0.0007570087909698486,6.24973326921463e-05,330.4243178371718,65.59702067558656,337.9995645324171,0.020983999595046043,0.031231999397277832,0.01439599972218275
109,2022-04-15 18:20:28.564571,-12.187556062017094,156.96201486708566,417.37542738732725,35.2225,28.8295,1017.9202,337.7096,330.38802562701693,65.59021780717323,337.43209704824676,9.28083324432373,-8.435394287109375,-15.789684295654297,330.38604828725227,65.59316844889469,337.1621833401735,0.00102224200963974,-0.000158749520778656,-0.0008534509688615799,330.3680678142622,65.57220659833192,337.1612117457641,0.019519999623298645,0.03001200035214424,0.013663999736309052
110,2022-04-15 18:20:33.805164,-11.924215025403607,157.1596332158363,417.296157862759,35.3648,28.5633,1017.9116,336.903,330.3482466052908,65.57117523976724,336.6594523889566,9.46905517578125,-8.275017738342285,-15.319300651550293,330.34623169948566,65.57304671159983,336.42854759878054,0.0025492124259471893,-0.0007692128419876099,-0.0002425462007522583,330.3938483632844,65.61154165776202,336.4263977967393,0.02000799961388111,0.03171999752521515,0.011711999773979187
111,2022-04-15 18:20:39.049476,-11.660504363043009,157.356975004239,417.2175317291963,35.3648,28.548,1017.9485,336.1812,330.37370272032746,65.69358589007221,335.93625488416274,9.412847518920898,-8.06070613861084,-15.520727157592773,330.37211811644,65.68884573878822,335.70115977293085,0.0028546079993247986,-0.0013796016573905945,6.248988211154938e-05,330.3675897010203,65.68917358786838,335.69912949920007,0.020739998668432236,0.031964000314474106,0.012199999764561653
112,2022-04-15 18:20:44.290365,-11.396793528401815,157.5537770144011,417.13966421852996,35.3114,28.7407,1017.9204,335.4395,330.335761019488,65.7570451776508,335.2013179917329,9.175924301147461,-8.002015113830566,-15.904071807861328,330.3338963778446,65.75472974352216,334.95271959651194,0.0004110857844352722,-0.0013790875673294067,0.0015894118696451187,330.30940673457553,65.78185242471629,334.9520536530679,0.020495999604463577,0.0302559994161129,0.013907999731600285
113,2022-04-15 18:20:49.533972,-11.132776479947964,157.75028099725026,417.0624697316792,35.3648,28.5082,1017.8904,334.7044,330.2709766752104,65.77254970706673,334.4620695423895,9.00564956665039,-7.359271049499512,-15.262182235717773,330.26705956172145,65.77086265034174,334.2246777800492,-0.0005053989589214325,-0.00015761703252792358,0.0006729252636432648,330.26315610861076,65.92962356740951,334.22513369517634,0.018543999642133713,0.03367199748754501,0.010735999792814255
114,2022-04-15 18:20:54.779304,-10.868537952875606,157.94643648894842,416.9859787324109,35.347,28.6398,1017.8994,333.9625,330.3041269983471,66.0586116898852,333.6969722421322,8.637266159057617,-6.955015659332275,-15.723367691040039,330.3039596587124,66.05667191616092,333.4248967791866,0.002243202179670334,-0.0004628300666809082,0.0006728116422891617,330.326338773528,66.09091848465937,333.42429743008694,0.020983999595046043,0.030988000333309174,0.013175999745726585
115,2022-04-15 18:21:00.019516,-10.604318694649647,158.14207823114975,416.9102651399567,35.3114,28.5877,1017.9006,333.1463,330.2812082985871,66.10821252363783,332.8655077012571,8.485843658447266,-6.467319488525391,-15.578913688659668,330.2807267702506,66.1090389765274,332.5883488700218,-0.0008106157183647156,0.0016751140356063843,0.0006728265434503555,330.26848365616337,66.14246592232544,332.5912346249461,0.018300000578165054,0.029767999425530434,0.01439599972218275
116,2022-04-15 18:21:05.265682,-10.339684349166667,158.33754066866868,416.83520952307856,35.2936,28.6214,1017.9011,332.3192,330.2838720723634,66.10332893838128,332.03676328321905,8.613323211669922,-6.334644794464111,-16.443805694580078,330.2846336384559,66.10471546678279,331.7489800927297,-0.0011164434254169464,0.00014811009168624878,0.0021998751908540726,330.2543519947706,66.15911109333277,331.7514321306418,0.020495999604463577,0.030499998480081558,0.015371999703347683
117,2022-04-15 18:21:10.509012,-10.075029685001123,158.53254484697177,416.7609290131798,35.1692,28.5724,1017.8992,331.5035,330.22991357792034,66.10133452314363,331.25952019907015,8.855661392211914,-6.252729892730713,-15.80483627319336,330.22901540804446,66.10190825903392,331.01328163420743,-0.0029488690197467804,0.0001483038067817688,-0.00177011638879776,330.19414729233154,66.17192452821571,331.0137938983952,0.02147199958562851,0.031964000314474106,0.01659199967980385
118,2022-04-15 18:21:15.749957,-9.81034970418661,158.72710803003218,416.68742560440546,35.3648,28.395,1017.916,330.7679,330.1741826493876,66.10017339098474,330.5196399572285,8.81658935546875,-6.151483535766602,-16.198314666748047,330.177232328852,66.09802871158534,330.27251005267914,0.001632586121559143,0.0007590949535369873,-0.00024201348423957825,330.1640671392268,66.15088071538291,330.2738009584323,0.02122800052165985,0.03245199844241142,0.00878399983048439
119,2022-04-15 18:21:20.992058,-9.545466746341623,158.92137381287435,416.61465411677597,35.4181,28.6153,1017.8901,330.0089,330.1155010791334,66.32283755792714,329.74046905218637,8.557063102722168,-5.862372398376465,-16.43572998046875,330.1131651544373,66.31891019915439,329.4760963350773,-0.00019970908761024475,0.0007588192820549011,-0.0014639869332313538,330.11376279598966,66.34281586124943,329.4762909954686,0.019763998687267303,0.031964000314474106,0.015859998762607574
120,2022-04-15 18:21:26.228521,-9.280720730644106,159.11510619479378,416.5427113156808,35.3292,28.5908,1017.9092,329.22,330.1318457218173,66.28793529126838,328.975207827389,8.724660873413086,-5.747450351715088,-16.054527282714844,330.1312583255487,66.28475242311515,328.745669075047,-0.001421503722667694,0.0013690367341041565,6.295554339885712e-05,330.15610655374917,66.20630087030838,328.74854116959295,0.018543999642133713,0.032207999378442764,0.018300000578165054
121,2022-04-15 18:21:31.469101,-9.015635012121958,159.30866684225845,416.4714716187346,35.2225,28.5449,1017.8862,328.5013,330.2210889735127,66.08827520145057,328.23924811413093,8.063271522521973,-5.206161022186279,-16.33698272705078,330.221522690525,66.09048135255249,327.9647530566719,0.001937810331583023,-0.0001579374074935913,6.297044456005096e-05,330.19501472635613,66.11837584512281,327.96487600007697,0.019763998687267303,0.030988000333309174,0.01634800061583519
122,2022-04-15 18:21:36.709736,-8.750406227455354,159.5019243042706,416.40099302507923,35.3114,28.6,1017.9128,327.6752,330.20255184010523,66.03956229229004,327.3869190528888,7.913516521453857,-4.966798305511475,-16.80987548828125,330.20430036853276,66.04188455660784,327.1027797683217,0.0007152222096920013,0.00014711171388626099,6.293132901191711e-05,330.2525863908702,66.08933388077192,327.1019123342971,0.01878799870610237,0.03171999752521515,0.015859998762607574
123,2022-04-15 18:21:41.953077,-8.484918593220153,159.69497521806227,416.3312495162169,35.187,28.6428,1017.9119,326.833,330.28924743124026,66.03578519767902,326.573371805754,7.977860927581787,-4.776202201843262,-16.532470703125,330.2887659029037,66.03790938651089,326.3062192016527,-0.0005065947771072388,-0.0007693693041801453,6.296858191490173e-05,330.2551101457685,66.1269887136662,326.3065846167733,0.020739998668432236,0.03147599846124649,0.016103999689221382
124,2022-04-15 18:21:47.194204,-8.219411687471654,159.88765785579724,416.2623081671318,35.3648,28.7652,1017.9211,326.0434,330.24209180521046,66.06276444490057,325.7823710130694,7.867469787597656,-4.692818641662598,-16.58986473083496,330.2415863712119,66.06416463368042,325.5280728249861,0.000409051775932312,-0.00015864521265029907,-0.0005478058010339737,330.1848548199658,66.10082908914505,325.52846897595794,0.02025200054049492,0.031964000314474106,0.013175999745726585
125,2022-04-15 18:21:52.426708,-7.9542202027848505,160.07974293936388,416.1942573440578,35.347,28.5541,1017.9053,325.2876,330.17395042295584,66.13068384600717,325.0450350166936,7.863327980041504,-4.659144878387451,-16.624439239501953,330.1727961209861,66.12974127990171,324.79527890440835,-0.0008128136396408081,-0.0022964030504226685,0.0012846235185861588,330.17050800761416,66.12830694017602,324.7930146966985,0.019276000559329987,0.03171999752521515,0.01512799970805645
126,2022-04-15 18:21:57.660068,-7.68886586179161,160.271590089942,416.1269763696888,35.2936,28.6459,1017.8835,324.5321,330.19218702803977,66.0956244849975,324.276269904852,8.086129188537598,-3.98378586769104,-16.720441818237305,330.18954032973636,66.0948731641888,324.02409249050595,-0.0008125416934490204,0.00045277923345565796,0.0003680828958749771,330.1724614417168,66.14765003590549,324.02534583021867,0.020495999604463577,0.0302559994161129,0.01659199967980385
